destination_id,destination_name,country,continent,type,unesco_site,best_season,avg_cost_usd,avg_rating,annual_visitors_millions,city,region,latitude,longitude,description,budget_level,culture_score,adventure_score,nature_score,beach_score,urban_score,nightlife_score,cuisine_score,wellness_score,seclusion_score,climate_spring_temp,climate_spring_label,climate_summer_temp,climate_summer_label,climate_autumn_temp,climate_autumn_label,climate_winter_temp,climate_winter_label,ideal_duration_days,experience_types,experience_types_str
DEST_0000,Serene Temple,Morocco,Africa,Beach,No,Summer,174.84,4.5,7.45,Essaouira,africa,31.5118281,-9.7620903,"Charming coastal breezes mix with the vibrant hum of bustling souks and the scent of fresh seafood, creating a laid-back, inviting atmosphere.",Budget,4,3,4,4,3,3,4,3,4,18.6,Pleasant,23.8,Pleasant,21.333333333333332,Pleasant,15.966666666666669,Pleasant,4,['Beach'],Beach
DEST_0001,Sacred Valley,Germany,Europe,Religious,No,Summer,94.41,4.6,1.98,Heidelberg,europe,49.4093582,8.694724,"Cobblestone streets lined with charming old buildings and the gentle flow of the Neckar River create an inviting, romantic atmosphere.",Mid-range,5,2,4,1,3,3,4,3,4,10.366666666666665,Cool,20.7,Pleasant,12.133333333333333,Cool,4.066666666666666,Cold,4,"['History', 'Cultural', 'Architecture']","History, Cultural, Architecture"
DEST_0002,Serene Temple,South Africa,Africa,Adventure,Yes,Summer,228.96,4.7,0.7,Cape Town,africa,-33.9288301,18.4172197,"A vibrant coastal city surrounded by rugged mountains and pristine beaches, offering laid-back afternoons, diverse cultures, and breathtaking views.",Mid-range,4,4,5,4,4,4,4,3,3,17.53333333333333,Pleasant,12.9,Cool,16.666666666666668,Pleasant,21.2,Pleasant,8,['Adventure'],Adventure
DEST_0003,Sacred Plaza,Australia,Oceania,Nature,No,Summer,120.96,4.3,2.24,Hobart,oceania,-42.8825088,147.3281233,"Charming waterfront views and a laid-back vibe invite exploration through historic streets, bustling markets, and the surrounding natural beauty of rugged landscapes.",Mid-range,4,3,5,3,3,2,4,3,4,12.733333333333334,Cool,8.833333333333334,Cool,11.5,Cool,15.9,Pleasant,5,['Nature'],Nature
DEST_0004,Golden Ruins,Mexico,North America,Adventure,No,Spring,162.1,3.9,4.6,Puerto Vallarta,north_america,20.6407176,-105.220306,"Golden beaches meet the lush Sierra Madre mountains, creating a vibrant yet laid-back atmosphere filled with colorful markets and lively nightlife.",Mid-range,3,4,4,5,3,4,4,4,3,23.066666666666666,Pleasant,25.3,Warm,24.3,Pleasant,21.2,Pleasant,5,['Adventure'],Adventure
DEST_0005,Hidden Valley,Thailand,Asia,Historical,Yes,Spring,190.82,4.0,1.83,Bangkok,asia,13.7524938,100.4935089,Busy streets filled with vibrant markets and aromatic street food stalls create an exhilarating atmosphere that's both chaotic and captivating.,Budget,5,3,2,2,5,5,5,4,1,30.566666666666666,Hot,29.599999999999998,Warm,28.73333333333333,Warm,28.133333333333336,Warm,10,"['History', 'Cultural', 'Architecture']","History, Cultural, Architecture"
DEST_0006,Hidden Park,Spain,Europe,Adventure,No,Summer,104.6,4.1,4.83,Asturias,europe,43.3133868,-5.94192,"Lush green landscapes meet rugged coastlines, offering a sense of tranquility and adventure with every breathtaking vista and charming village.",Mid-range,4,4,5,4,2,3,4,3,4,12.333333333333334,Cool,18.499999999999996,Pleasant,14.666666666666666,Cool,9.1,Cool,6,['Adventure'],Adventure
DEST_0007,Grand Valley,Brazil,South America,Beach,No,Autumn,118.53,4.7,5.39,Salvador da Bahia,south_america,-13.2432762,-43.3742847,"Lively streets filled with music and dance, vibrant markets, and stunning coastal views create an energetic yet laid-back atmosphere.",Mid-range,5,3,4,4,3,4,5,3,2,27.2,Warm,25.600000000000005,Warm,28.866666666666664,Warm,26.96666666666667,Warm,5,['Beach'],Beach
DEST_0008,Ancient Beach,New Zealand,Oceania,Historical,No,Spring,122.78,4.5,6.27,Rotorua,oceania,-38.1381493,176.252922,"Steam rises from bubbling mud pools and the air is filled with the scent of sulfur, creating a unique geothermal wonderland.",Mid-range,4,4,5,2,3,3,3,5,3,13.066666666666668,Cool,7.866666666666667,Cool,11.233333333333334,Cool,16.566666666666666,Pleasant,4,"['History', 'Cultural', 'Architecture']","History, Cultural, Architecture"
DEST_0009,Serene Valley,Kenya,Africa,City,No,Spring,119.99,4.8,1.43,Nairobi,africa,-1.30261485,36.82884202,"Bustling streets filled with colorful markets, the aroma of street food, and a lively mix of cultures create a dynamic urban experience.",Mid-range,4,4,5,1,4,3,3,3,2,20.666666666666668,Pleasant,18.3,Pleasant,19.966666666666665,Pleasant,20.8,Pleasant,5,['Urban'],Urban
DEST_0010,Hidden Ruins,China,Asia,Historical,No,Autumn,119.91,5.0,1.66,Shanghai,asia,31.2312707,121.4700152,"Vibrant streets pulse with energy, blending futuristic skyscrapers with ancient temples, while enticing aromas from street food stalls fill the air.",Mid-range,5,3,2,1,5,5,5,3,2,17.266666666666666,Pleasant,28.400000000000002,Warm,20.333333333333332,Pleasant,7.433333333333333,Cool,6,"['History', 'Cultural', 'Architecture']","History, Cultural, Architecture"
DEST_0011,Ancient Park,Japan,Asia,Historical,No,Winter,123.32,4.5,9.14,Takayama,asia,36.1396246,137.2510322,"Charming wooden houses, serene streets, and the gentle flow of the river create a peaceful atmosphere perfect for unwinding and exploration.",Mid-range,5,2,4,1,2,2,4,3,4,10.533333333333333,Cool,22.96666666666667,Pleasant,14.200000000000001,Cool,0.5333333333333333,Cold,4,"['History', 'Cultural', 'Architecture']","History, Cultural, Architecture"
DEST_0012,Grand Canyon,Morocco,Africa,City,Yes,Winter,191.13,4.1,3.46,Marrakesh,africa,31.6258257,-7.9891608,"A sensory feast of vibrant colors, aromatic spices, bustling souks, and serene gardens, creating an enchanting and immersive experience for every visitor.",Budget,5,3,3,1,4,4,5,4,2,19.86666666666667,Pleasant,28.266666666666666,Warm,22.233333333333334,Pleasant,14.033333333333333,Cool,5,['Urban'],Urban
DEST_0013,Golden Temple,Morocco,Africa,Religious,No,Winter,288.92,4.9,2.26,Fès,africa,34.0346534,-5.0161926,"Winding alleys filled with vibrant souks, the aroma of spices, and the sound of artisans at work create an enchanting, timeless atmosphere.",Budget,5,2,2,1,3,2,4,3,3,16.5,Pleasant,26.399999999999995,Warm,19.599999999999998,Pleasant,11.366666666666667,Cool,6,"['History', 'Cultural', 'Architecture']","History, Cultural, Architecture"
DEST_0014,Serene Park,Italy,Europe,Historical,Yes,Autumn,186.92,4.6,1.34,Verona,europe,45.4424977,10.98573769,"Charming streets with a romantic vibe, historic architecture, and cozy piazzas invite leisurely strolls and delightful discoveries at every turn.",Mid-range,5,2,3,1,4,3,4,3,3,13.666666666666666,Cool,24.766666666666666,Pleasant,14.500000000000002,Cool,4.466666666666667,Cold,4,"['History', 'Cultural', 'Architecture']","History, Cultural, Architecture"
DEST_0015,Lush Ruins,Peru,South America,City,No,Autumn,99.55,4.0,3.08,Lima,south_america,-12.0621065,-77.0365256,"A lively blend of colonial charm and vibrant modernity, with bustling markets, ocean views, and the tantalizing aroma of street food.",Mid-range,5,3,3,2,4,4,5,3,2,21.46666666666667,Pleasant,17.433333333333334,Pleasant,17.933333333333334,Pleasant,22.633333333333336,Pleasant,6,['Urban'],Urban
DEST_0016,Sacred Canyon,Brazil,South America,City,No,Winter,126.97,4.8,3.17,Sao Paulo,south_america,-23.5506507,-46.6333824,"Energetic streets buzz with life, offering a tapestry of art, diverse cuisine, and vibrant nightlife that captivates every sense.",Mid-range,5,3,2,2,5,5,5,3,1,20.633333333333336,Pleasant,17.566666666666666,Pleasant,20.400000000000002,Pleasant,22.600000000000005,Pleasant,6,['Urban'],Urban
DEST_0017,Mystic Forest,South Africa,Africa,Adventure,No,Autumn,93.47,4.5,8.12,Cape Town,africa,-33.9288301,18.4172197,"A vibrant coastal city surrounded by rugged mountains and pristine beaches, offering laid-back afternoons, diverse cultures, and breathtaking views.",Mid-range,4,4,5,4,4,4,4,3,3,17.53333333333333,Pleasant,12.9,Cool,16.666666666666668,Pleasant,21.2,Pleasant,8,['Adventure'],Adventure
DEST_0018,Mystic Ruins,Vietnam,Asia,Beach,No,Summer,116.15,4.7,0.55,Hoi An,asia,15.8795863,108.3319406,"Charming lantern-lit streets, bustling markets, and the scent of fresh herbs create an inviting atmosphere that feels both timeless and vibrant.",Budget,5,3,3,3,2,2,5,3,4,27.366666666666664,Warm,30.166666666666668,Hot,27.066666666666666,Warm,22.73333333333333,Pleasant,4,['Beach'],Beach
DEST_0019,Lush Forest,Kenya,Africa,Adventure,No,Summer,179.11,4.8,7.43,Nairobi,africa,-1.30261485,36.82884202,"Bustling streets filled with colorful markets, the aroma of street food, and a lively mix of cultures create a dynamic urban experience.",Mid-range,4,4,5,1,4,3,3,3,2,20.666666666666668,Pleasant,18.3,Pleasant,19.966666666666665,Pleasant,20.8,Pleasant,5,['Adventure'],Adventure
DEST_0020,Ancient Forest,Brazil,South America,Nature,No,Summer,108.04,4.4,8.7,Salvador da Bahia,south_america,-13.2432762,-43.3742847,"Lively streets filled with music and dance, vibrant markets, and stunning coastal views create an energetic yet laid-back atmosphere.",Mid-range,5,3,4,4,3,4,5,3,2,27.2,Warm,25.600000000000005,Warm,28.866666666666664,Warm,26.96666666666667,Warm,5,['Nature'],Nature
DEST_0021,Grand Ruins,Brazil,South America,Religious,Yes,Spring,74.59,4.8,1.1,Sao Paulo,south_america,-23.5506507,-46.6333824,"Energetic streets buzz with life, offering a tapestry of art, diverse cuisine, and vibrant nightlife that captivates every sense.",Mid-range,5,3,2,2,5,5,5,3,1,20.633333333333336,Pleasant,17.566666666666666,Pleasant,20.400000000000002,Pleasant,22.600000000000005,Pleasant,6,"['History', 'Cultural', 'Architecture']","History, Cultural, Architecture"
DEST_0022,Mystic Forest,India,Asia,Beach,No,Spring,94.68,4.1,7.43,Goa,asia,15.3004543,74.0855134,"Golden beaches stretch endlessly alongside vibrant markets and aromatic spice-scented air, offering a perfect blend of relaxation and lively culture.",Mid-range,4,4,3,5,3,5,4,3,3,29.166666666666668,Warm,26.900000000000002,Warm,27.566666666666666,Warm,26.7,Warm,5,['Beach'],Beach
DEST_0023,Sacred Park,Greece,Europe,Religious,No,Spring,191.74,4.6,4.99,Athens,europe,37.9755648,23.7348324,"Ancient ruins stand proudly against a backdrop of vibrant street life and bustling markets, where history and modernity create an electrifying blend.",Mid-range,5,3,3,3,4,4,5,3,2,17.2,Pleasant,28.266666666666666,Warm,20.633333333333333,Pleasant,11.433333333333332,Cool,5,"['History', 'Cultural', 'Architecture']","History, Cultural, Architecture"
DEST_0024,Sacred Forest,Canada,North America,City,No,Spring,168.08,4.3,7.73,Montreal,north_america,45.5031824,-73.5698065,"Charming streets filled with a mix of European elegance and North American vibrancy, offering lively festivals, diverse cuisine, and artistic flair.",Mid-range,5,3,3,2,5,4,5,3,2,6.933333333333334,Cool,21.266666666666666,Pleasant,10.166666666666666,Cool,-5.566666666666666,Cold,5,['Urban'],Urban
DEST_0025,Ancient Falls,France,Europe,Nature,No,Spring,224.77,4.6,5.19,Annecy,europe,45.8992348,6.1288847,"Charming canals and cobblestone streets weave through a picturesque town, surrounded by stunning alpine views and the serene waters of a crystal-clear lake.",Mid-range,4,4,5,3,3,3,4,3,4,11.1,Cool,21.0,Pleasant,11.966666666666667,Cool,3.6333333333333333,Cold,4,['Nature'],Nature
DEST_0026,Ancient Valley,Argentina,South America,City,Yes,Summer,30.0,4.7,0.74,Buenos Aires,south_america,-34.6083696,-58.4440583,"Lively streets filled with tango rhythms, vibrant markets, and historic architecture create an irresistible blend of culture and energy.",Mid-range,5,3,2,2,5,5,5,3,2,18.766666666666666,Pleasant,12.533333333333333,Cool,18.3,Pleasant,24.666666666666668,Pleasant,10,['Urban'],Urban
DEST_0027,Lush Forest,Vietnam,Asia,Beach,Yes,Winter,79.06,4.8,5.33,Hoi An,asia,15.8795863,108.3319406,"Charming lantern-lit streets, bustling markets, and the scent of fresh herbs create an inviting atmosphere that feels both timeless and vibrant.",Budget,5,3,3,3,2,2,5,3,4,27.366666666666664,Warm,30.166666666666668,Hot,27.066666666666666,Warm,22.73333333333333,Pleasant,4,['Beach'],Beach
DEST_0028,Sacred Temple,United States,North America,Historical,No,Autumn,139.02,4.6,4.4,Washington,north_america,38.8950368,-77.0365427,"Majestic landscapes blend with vibrant city life, offering a mix of natural beauty, cultural richness, and a welcoming atmosphere.",Mid-range,5,2,3,1,5,4,4,3,2,14.633333333333335,Cool,26.23333333333333,Warm,16.73333333333333,Pleasant,4.8999999999999995,Cold,5,"['History', 'Cultural', 'Architecture']","History, Cultural, Architecture"
DEST_0029,Sacred Pagoda,Argentina,South America,Adventure,No,Spring,110.54,4.7,1.23,Salta,south_america,-25.1076701,-64.3494964,"Stunning mountain landscapes, vibrant local markets, and the warmth of traditional folklore create an inviting and colorful atmosphere.",Mid-range,4,4,5,1,3,3,4,3,4,16.400000000000002,Pleasant,11.133333333333333,Cool,18.233333333333334,Pleasant,21.066666666666666,Pleasant,5,['Adventure'],Adventure
DEST_0030,Golden Park,Greece,Europe,City,Yes,Winter,109.58,4.3,9.33,Athens,europe,37.9755648,23.7348324,"Ancient ruins stand proudly against a backdrop of vibrant street life and bustling markets, where history and modernity create an electrifying blend.",Mid-range,5,3,3,3,4,4,5,3,2,17.2,Pleasant,28.266666666666666,Warm,20.633333333333333,Pleasant,11.433333333333332,Cool,5,['Urban'],Urban
DEST_0031,Golden Temple,New Zealand,Oceania,City,Yes,Winter,175.07,4.8,8.78,Wellington,oceania,-41.2887953,174.7772114,"Charming harborside views, vibrant arts scene, and a cozy mix of urban buzz and nature create a welcoming, eclectic atmosphere.",Mid-range,4,3,4,3,4,4,4,3,2,15.033333333333333,Pleasant,10.966666666666669,Cool,13.266666666666666,Cool,17.633333333333333,Pleasant,6,['Urban'],Urban
DEST_0032,Serene Canyon,Spain,Europe,Beach,Yes,Spring,123.51,4.7,8.98,Barcelona,europe,41.3828939,2.1774322,"Vibrant streets filled with Gaudí's whimsical architecture, lively tapas bars, and the warm Mediterranean breeze create an inviting and dynamic atmosphere.",Mid-range,5,3,3,4,5,5,5,3,2,15.066666666666668,Pleasant,24.8,Pleasant,17.8,Pleasant,9.766666666666667,Cool,6,['Beach'],Beach
DEST_0033,Lush Temple,Kenya,Africa,Adventure,No,Winter,218.59,4.6,9.01,Nairobi,africa,-1.30261485,36.82884202,"Bustling streets filled with colorful markets, the aroma of street food, and a lively mix of cultures create a dynamic urban experience.",Mid-range,4,4,5,1,4,3,3,3,2,20.666666666666668,Pleasant,18.3,Pleasant,19.966666666666665,Pleasant,20.8,Pleasant,5,['Adventure'],Adventure
DEST_0034,Grand Falls,Vietnam,Asia,Adventure,Yes,Winter,114.9,4.4,2.67,Sapa,asia,22.3359246,103.8426749,"Rolling green terraces and misty mountain vistas create a serene escape, where vibrant local cultures and tranquil landscapes embrace visitors warmly.",Budget,4,4,5,1,2,2,3,3,4,17.099999999999998,Pleasant,20.266666666666666,Pleasant,16.0,Pleasant,10.133333333333335,Cool,5,['Adventure'],Adventure
DEST_0035,Golden Valley,Thailand,Asia,Adventure,No,Autumn,213.69,4.4,8.68,Chiang Mai,asia,18.7882778,98.9858802,"Lush mountain landscapes and vibrant night markets create a serene yet lively atmosphere, inviting exploration and relaxation at every turn.",Budget,5,4,4,1,3,3,5,4,4,29.5,Warm,28.133333333333336,Warm,26.8,Warm,23.599999999999998,Pleasant,5,['Adventure'],Adventure
DEST_0036,Ancient Temple,Italy,Europe,Adventure,No,Spring,150.26,4.4,4.47,Sardinia,europe,40.0912813,9.0305773,"Crystal-clear waters, rugged coastlines, and charming villages create a serene escape where you can unwind and savor local flavors.",Mid-range,3,4,5,5,3,3,4,4,4,15.633333333333333,Pleasant,25.866666666666664,Warm,18.733333333333334,Pleasant,11.333333333333334,Cool,8,['Adventure'],Adventure
DEST_0037,Mystic Canyon,Canada,North America,City,Yes,Autumn,130.22,4.4,3.71,Montreal,north_america,45.5031824,-73.5698065,"Charming streets filled with a mix of European elegance and North American vibrancy, offering lively festivals, diverse cuisine, and artistic flair.",Mid-range,5,3,3,2,5,4,5,3,2,6.933333333333334,Cool,21.266666666666666,Pleasant,10.166666666666666,Cool,-5.566666666666666,Cold,5,['Urban'],Urban
DEST_0038,Sacred Valley,India,Asia,City,No,Summer,141.94,4.6,5.43,Mumbai,asia,19.054999,72.8692035,"A bustling metropolis where vibrant street life, aromatic food stalls, and historic landmarks blend with a dynamic energy that never sleeps.",Mid-range,5,3,2,3,5,4,5,3,1,29.933333333333334,Warm,28.53333333333333,Warm,28.900000000000002,Warm,26.5,Warm,6,['Urban'],Urban
DEST_0039,Serene Ruins,Italy,Europe,Religious,No,Summer,102.85,4.9,9.73,Verona,europe,45.4424977,10.98573769,"Charming streets with a romantic vibe, historic architecture, and cozy piazzas invite leisurely strolls and delightful discoveries at every turn.",Mid-range,5,2,3,1,4,3,4,3,3,13.666666666666666,Cool,24.766666666666666,Pleasant,14.500000000000002,Cool,4.466666666666667,Cold,4,"['History', 'Cultural', 'Architecture']","History, Cultural, Architecture"
DEST_0040,Grand Beach,Thailand,Asia,Adventure,Yes,Autumn,54.06,4.5,3.21,Chiang Mai,asia,18.7882778,98.9858802,"Lush mountain landscapes and vibrant night markets create a serene yet lively atmosphere, inviting exploration and relaxation at every turn.",Budget,5,4,4,1,3,3,5,4,4,29.5,Warm,28.133333333333336,Warm,26.8,Warm,23.599999999999998,Pleasant,5,['Adventure'],Adventure
DEST_0041,Crystal Pagoda,United States,North America,Adventure,No,Summer,155.12,4.4,5.28,San Diego,north_america,32.7174202,-117.162772,"Sun-drenched beaches, vibrant neighborhoods, and an easygoing vibe invite you to savor ocean breezes and explore diverse, lively cultural spots.",Mid-range,4,4,4,5,4,4,4,4,3,16.96666666666667,Pleasant,21.266666666666666,Pleasant,20.066666666666666,Pleasant,14.566666666666668,Cool,5,['Adventure'],Adventure
DEST_0042,Crystal Temple,Argentina,South America,Adventure,Yes,Autumn,140.38,4.6,1.88,Salta,south_america,-25.1076701,-64.3494964,"Stunning mountain landscapes, vibrant local markets, and the warmth of traditional folklore create an inviting and colorful atmosphere.",Mid-range,4,4,5,1,3,3,4,3,4,16.400000000000002,Pleasant,11.133333333333333,Cool,18.233333333333334,Pleasant,21.066666666666666,Pleasant,5,['Adventure'],Adventure
DEST_0043,Golden Beach,Italy,Europe,Nature,No,Summer,166.99,4.5,2.8,Sicily,europe,37.587794,14.155048,"Sun-drenched landscapes, aromatic citrus groves, and vibrant markets create a sensory feast, while ancient ruins whisper stories of a rich, layered history.",Mid-range,5,3,4,4,3,3,5,3,3,11.533333333333331,Cool,23.8,Pleasant,15.5,Pleasant,6.966666666666666,Cool,8,['Nature'],Nature
DEST_0044,Sacred Valley,South Africa,Africa,Adventure,Yes,Winter,207.14,4.7,2.76,Cape Town,africa,-33.9288301,18.4172197,"A vibrant coastal city surrounded by rugged mountains and pristine beaches, offering laid-back afternoons, diverse cultures, and breathtaking views.",Mid-range,4,4,5,4,4,4,4,3,3,17.53333333333333,Pleasant,12.9,Cool,16.666666666666668,Pleasant,21.2,Pleasant,8,['Adventure'],Adventure
DEST_0045,Serene Plaza,United States,North America,Beach,No,Summer,109.91,4.9,6.51,San Diego,north_america,32.7174202,-117.162772,"Sun-drenched beaches, vibrant neighborhoods, and an easygoing vibe invite you to savor ocean breezes and explore diverse, lively cultural spots.",Mid-range,4,4,4,5,4,4,4,4,3,16.96666666666667,Pleasant,21.266666666666666,Pleasant,20.066666666666666,Pleasant,14.566666666666668,Cool,5,['Beach'],Beach
DEST_0046,Golden Park,Greece,Europe,Nature,No,Winter,179.34,5.0,1.36,Nafplio,europe,37.5659229,22.8068782,"Charming cobblestone streets, vibrant bougainvillea, and the gentle sea breeze create a serene atmosphere perfect for leisurely exploration and relaxation.",Mid-range,4,3,4,3,3,3,4,3,4,15.633333333333335,Pleasant,27.23333333333333,Warm,18.599999999999998,Pleasant,8.733333333333333,Cool,3,['Nature'],Nature
DEST_0047,Serene Falls,Spain,Europe,Adventure,No,Spring,125.33,4.8,2.27,Asturias,europe,43.3133868,-5.94192,"Lush green landscapes meet rugged coastlines, offering a sense of tranquility and adventure with every breathtaking vista and charming village.",Mid-range,4,4,5,4,2,3,4,3,4,12.333333333333334,Cool,18.499999999999996,Pleasant,14.666666666666666,Cool,9.1,Cool,6,['Adventure'],Adventure
DEST_0048,Crystal Pagoda,Mexico,North America,Historical,Yes,Autumn,154.98,4.3,6.94,Guanajuato,north_america,20.9876996,-101.0,"Winding cobblestone streets and colorful facades create a charming, vibrant atmosphere, where history and lively festivals fill the air with excitement.",Mid-range,5,3,3,1,4,3,4,3,2,22.233333333333334,Pleasant,21.166666666666668,Pleasant,18.866666666666664,Pleasant,15.866666666666665,Pleasant,5,"['History', 'Cultural', 'Architecture']","History, Cultural, Architecture"
DEST_0049,Ancient Valley,Peru,South America,Beach,No,Summer,150.46,4.4,2.65,Lima,south_america,-12.0621065,-77.0365256,"A lively blend of colonial charm and vibrant modernity, with bustling markets, ocean views, and the tantalizing aroma of street food.",Mid-range,5,3,3,2,4,4,5,3,2,21.46666666666667,Pleasant,17.433333333333334,Pleasant,17.933333333333334,Pleasant,22.633333333333336,Pleasant,6,['Beach'],Beach
DEST_0050,Hidden Valley,New Zealand,Oceania,City,Yes,Spring,96.88,4.6,7.06,Wellington,oceania,-41.2887953,174.7772114,"Charming harborside views, vibrant arts scene, and a cozy mix of urban buzz and nature create a welcoming, eclectic atmosphere.",Mid-range,4,3,4,3,4,4,4,3,2,15.033333333333333,Pleasant,10.966666666666669,Cool,13.266666666666666,Cool,17.633333333333333,Pleasant,6,['Urban'],Urban
DEST_0051,Sacred Canyon,Mexico,North America,Historical,Yes,Spring,181.03,4.5,1.81,Guanajuato,north_america,20.9876996,-101.0,"Winding cobblestone streets and colorful facades create a charming, vibrant atmosphere, where history and lively festivals fill the air with excitement.",Mid-range,5,3,3,1,4,3,4,3,2,22.233333333333334,Pleasant,21.166666666666668,Pleasant,18.866666666666664,Pleasant,15.866666666666665,Pleasant,5,"['History', 'Cultural', 'Architecture']","History, Cultural, Architecture"
DEST_0052,Sacred Canyon,Egypt,Africa,Religious,No,Summer,110.84,4.4,9.28,Giza,africa,29.9870753,31.2118063,The awe-inspiring sight of ancient pyramids rising from the golden desert sands creates an atmosphere of timeless wonder and historical intrigue.,Mid-range,5,3,3,1,3,2,4,2,2,22.8,Pleasant,29.933333333333337,Warm,25.133333333333336,Warm,16.0,Pleasant,4,"['History', 'Cultural', 'Architecture']","History, Cultural, Architecture"
DEST_0053,Ancient Forest,Kenya,Africa,Beach,Yes,Winter,132.16,4.7,6.77,Mombasa,africa,-4.05052,39.667169,"Lively markets, stunning beaches, and a fusion of cultures create a vibrant atmosphere where you can feel the ocean breeze and hear Swahili melodies.",Mid-range,4,4,4,5,3,3,4,3,3,27.899999999999995,Warm,25.2,Warm,26.599999999999998,Warm,28.133333333333336,Warm,5,['Beach'],Beach
DEST_0054,Hidden Temple,Germany,Europe,Historical,No,Spring,161.37,4.9,5.53,Heidelberg,europe,49.4093582,8.694724,"Cobblestone streets lined with charming old buildings and the gentle flow of the Neckar River create an inviting, romantic atmosphere.",Mid-range,5,2,4,1,3,3,4,3,4,10.366666666666665,Cool,20.7,Pleasant,12.133333333333333,Cool,4.066666666666666,Cold,4,"['History', 'Cultural', 'Architecture']","History, Cultural, Architecture"
DEST_0055,Crystal Beach,Kenya,Africa,Religious,No,Spring,133.78,4.4,9.02,Nairobi,africa,-1.30261485,36.82884202,"Bustling streets filled with colorful markets, the aroma of street food, and a lively mix of cultures create a dynamic urban experience.",Mid-range,4,4,5,1,4,3,3,3,2,20.666666666666668,Pleasant,18.3,Pleasant,19.966666666666665,Pleasant,20.8,Pleasant,5,"['History', 'Cultural', 'Architecture']","History, Cultural, Architecture"
DEST_0056,Golden Beach,Spain,Europe,Religious,No,Autumn,162.99,4.7,3.72,Barcelona,europe,41.3828939,2.1774322,"Vibrant streets filled with Gaudí's whimsical architecture, lively tapas bars, and the warm Mediterranean breeze create an inviting and dynamic atmosphere.",Mid-range,5,3,3,4,5,5,5,3,2,15.066666666666668,Pleasant,24.8,Pleasant,17.8,Pleasant,9.766666666666667,Cool,6,"['History', 'Cultural', 'Architecture']","History, Cultural, Architecture"
DEST_0057,Lush Forest,Peru,South America,City,Yes,Spring,214.97,4.2,9.02,Lima,south_america,-12.0621065,-77.0365256,"A lively blend of colonial charm and vibrant modernity, with bustling markets, ocean views, and the tantalizing aroma of street food.",Mid-range,5,3,3,2,4,4,5,3,2,21.46666666666667,Pleasant,17.433333333333334,Pleasant,17.933333333333334,Pleasant,22.633333333333336,Pleasant,6,['Urban'],Urban
DEST_0058,Mystic Forest,Thailand,Asia,Nature,Yes,Summer,162.52,4.6,6.6,Chiang Mai,asia,18.7882778,98.9858802,"Lush mountain landscapes and vibrant night markets create a serene yet lively atmosphere, inviting exploration and relaxation at every turn.",Budget,5,4,4,1,3,3,5,4,4,29.5,Warm,28.133333333333336,Warm,26.8,Warm,23.599999999999998,Pleasant,5,['Nature'],Nature
DEST_0059,Golden Canyon,Italy,Europe,Historical,No,Winter,161.31,4.8,0.59,Verona,europe,45.4424977,10.98573769,"Charming streets with a romantic vibe, historic architecture, and cozy piazzas invite leisurely strolls and delightful discoveries at every turn.",Mid-range,5,2,3,1,4,3,4,3,3,13.666666666666666,Cool,24.766666666666666,Pleasant,14.500000000000002,Cool,4.466666666666667,Cold,4,"['History', 'Cultural', 'Architecture']","History, Cultural, Architecture"
DEST_0060,Serene Valley,Japan,Asia,Beach,Yes,Spring,164.65,4.3,0.55,Takayama,asia,36.1396246,137.2510322,"Charming wooden houses, serene streets, and the gentle flow of the river create a peaceful atmosphere perfect for unwinding and exploration.",Mid-range,5,2,4,1,2,2,4,3,4,10.533333333333333,Cool,22.96666666666667,Pleasant,14.200000000000001,Cool,0.5333333333333333,Cold,4,['Beach'],Beach
DEST_0061,Mystic Temple,Japan,Asia,Nature,No,Autumn,158.74,4.1,7.07,Takayama,asia,36.1396246,137.2510322,"Charming wooden houses, serene streets, and the gentle flow of the river create a peaceful atmosphere perfect for unwinding and exploration.",Mid-range,5,2,4,1,2,2,4,3,4,10.533333333333333,Cool,22.96666666666667,Pleasant,14.200000000000001,Cool,0.5333333333333333,Cold,4,['Nature'],Nature
DEST_0062,Hidden Plaza,United States,North America,City,Yes,Autumn,90.43,4.7,7.27,New York,north_america,40.7127281,-74.0060152,"The city buzzes with energy, offering iconic skylines, diverse cultures, and a sensory overload of sights, sounds, and tastes at every corner.",Luxury,5,3,3,2,5,5,5,3,1,12.033333333333333,Cool,24.599999999999998,Pleasant,15.533333333333331,Pleasant,2.9,Cold,8,['Urban'],Urban
DEST_0063,Ancient Plaza,Kenya,Africa,Religious,Yes,Winter,112.44,4.2,7.59,Nairobi,africa,-1.30261485,36.82884202,"Bustling streets filled with colorful markets, the aroma of street food, and a lively mix of cultures create a dynamic urban experience.",Mid-range,4,4,5,1,4,3,3,3,2,20.666666666666668,Pleasant,18.3,Pleasant,19.966666666666665,Pleasant,20.8,Pleasant,5,"['History', 'Cultural', 'Architecture']","History, Cultural, Architecture"
DEST_0064,Lush Falls,Italy,Europe,Adventure,Yes,Winter,198.17,4.6,6.75,Sardinia,europe,40.0912813,9.0305773,"Crystal-clear waters, rugged coastlines, and charming villages create a serene escape where you can unwind and savor local flavors.",Mid-range,3,4,5,5,3,3,4,4,4,15.633333333333333,Pleasant,25.866666666666664,Warm,18.733333333333334,Pleasant,11.333333333333334,Cool,8,['Adventure'],Adventure
DEST_0065,Serene Plaza,Argentina,South America,City,Yes,Winter,106.62,4.5,3.99,Buenos Aires,south_america,-34.6083696,-58.4440583,"Lively streets filled with tango rhythms, vibrant markets, and historic architecture create an irresistible blend of culture and energy.",Mid-range,5,3,2,2,5,5,5,3,2,18.766666666666666,Pleasant,12.533333333333333,Cool,18.3,Pleasant,24.666666666666668,Pleasant,10,['Urban'],Urban
DEST_0066,Crystal Falls,Peru,South America,Historical,No,Summer,105.52,4.3,9.74,Lima,south_america,-12.0621065,-77.0365256,"A lively blend of colonial charm and vibrant modernity, with bustling markets, ocean views, and the tantalizing aroma of street food.",Mid-range,5,3,3,2,4,4,5,3,2,21.46666666666667,Pleasant,17.433333333333334,Pleasant,17.933333333333334,Pleasant,22.633333333333336,Pleasant,6,"['History', 'Cultural', 'Architecture']","History, Cultural, Architecture"
DEST_0067,Sacred Falls,Morocco,Africa,Nature,No,Autumn,193.93,4.4,6.5,Chefchaouen,africa,35.1700832,-5.276658297,"Wander through winding blue-washed alleys, breathe in the fresh mountain air, and feel a serene calm envelop you in this charming town.",Budget,4,3,4,1,2,2,4,3,4,17.3,Pleasant,24.900000000000002,Pleasant,20.433333333333334,Pleasant,14.1,Cool,4,['Nature'],Nature
DEST_0068,Crystal Beach,France,Europe,Beach,Yes,Spring,150.65,4.9,5.98,Ajaccio,europe,41.9263991,8.7376029,"Nestled between mountains and sea, this charming coastal town offers sunlit streets, vibrant markets, and a rich tapestry of history and culture.",Mid-range,4,3,4,4,3,3,4,3,4,14.300000000000002,Cool,24.166666666666668,Pleasant,17.733333333333334,Pleasant,10.133333333333333,Cool,5,['Beach'],Beach
DEST_0069,Hidden Plaza,Greece,Europe,Nature,No,Autumn,79.68,4.5,7.36,Nafplio,europe,37.5659229,22.8068782,"Charming cobblestone streets, vibrant bougainvillea, and the gentle sea breeze create a serene atmosphere perfect for leisurely exploration and relaxation.",Mid-range,4,3,4,3,3,3,4,3,4,15.633333333333335,Pleasant,27.23333333333333,Warm,18.599999999999998,Pleasant,8.733333333333333,Cool,3,['Nature'],Nature
DEST_0070,Serene Canyon,Egypt,Africa,Nature,No,Summer,96.46,4.6,9.43,Aswan,africa,24.091071,32.897306,"Tranquil river views and ancient temples offer a serene escape, with warm breezes and the gentle flow of the Nile setting the pace.",Budget,5,3,4,2,2,2,4,3,4,28.0,Warm,35.766666666666666,Hot,28.899999999999995,Warm,17.633333333333333,Pleasant,5,['Nature'],Nature
DEST_0071,Sacred Temple,Italy,Europe,Religious,Yes,Autumn,143.79,4.7,9.68,Verona,europe,45.4424977,10.98573769,"Charming streets with a romantic vibe, historic architecture, and cozy piazzas invite leisurely strolls and delightful discoveries at every turn.",Mid-range,5,2,3,1,4,3,4,3,3,13.666666666666666,Cool,24.766666666666666,Pleasant,14.500000000000002,Cool,4.466666666666667,Cold,4,"['History', 'Cultural', 'Architecture']","History, Cultural, Architecture"
DEST_0072,Hidden Park,Japan,Asia,Adventure,No,Summer,107.66,4.0,8.59,Takayama,asia,36.1396246,137.2510322,"Charming wooden houses, serene streets, and the gentle flow of the river create a peaceful atmosphere perfect for unwinding and exploration.",Mid-range,5,2,4,1,2,2,4,3,4,10.533333333333333,Cool,22.96666666666667,Pleasant,14.200000000000001,Cool,0.5333333333333333,Cold,4,['Adventure'],Adventure
DEST_0073,Crystal Forest,Peru,South America,Religious,No,Summer,103.7,4.3,5.79,Lima,south_america,-12.0621065,-77.0365256,"A lively blend of colonial charm and vibrant modernity, with bustling markets, ocean views, and the tantalizing aroma of street food.",Mid-range,5,3,3,2,4,4,5,3,2,21.46666666666667,Pleasant,17.433333333333334,Pleasant,17.933333333333334,Pleasant,22.633333333333336,Pleasant,6,"['History', 'Cultural', 'Architecture']","History, Cultural, Architecture"
DEST_0074,Crystal Forest,Argentina,South America,Religious,No,Autumn,158.66,4.6,5.92,Buenos Aires,south_america,-34.6083696,-58.4440583,"Lively streets filled with tango rhythms, vibrant markets, and historic architecture create an irresistible blend of culture and energy.",Mid-range,5,3,2,2,5,5,5,3,2,18.766666666666666,Pleasant,12.533333333333333,Cool,18.3,Pleasant,24.666666666666668,Pleasant,10,"['History', 'Cultural', 'Architecture']","History, Cultural, Architecture"
DEST_0075,Grand Ruins,Germany,Europe,City,No,Autumn,161.55,4.3,9.91,Berlin,europe,52.510885,13.3989367,"Eclectic streets filled with history, art, and a dynamic cultural scene create an atmosphere that's both invigorating and deeply engaging.",Mid-range,5,3,2,1,5,5,4,3,2,10.200000000000001,Cool,19.866666666666664,Pleasant,10.933333333333335,Cool,3.1999999999999997,Cold,5,['Urban'],Urban
DEST_0076,Golden Canyon,Egypt,Africa,Nature,No,Spring,152.91,4.2,8.84,Sharm El Sheikh,africa,27.8644422,34.295447,Crystal-clear waters and vibrant coral reefs invite you to explore a world of underwater wonders while sun-drenched beaches promise pure relaxation.,Mid-range,3,4,4,5,3,4,3,4,3,24.133333333333336,Pleasant,32.766666666666666,Hot,26.066666666666666,Warm,15.766666666666666,Pleasant,5,['Nature'],Nature
DEST_0077,Hidden Pagoda,Argentina,South America,City,No,Autumn,193.62,4.8,7.17,Buenos Aires,south_america,-34.6083696,-58.4440583,"Lively streets filled with tango rhythms, vibrant markets, and historic architecture create an irresistible blend of culture and energy.",Mid-range,5,3,2,2,5,5,5,3,2,18.766666666666666,Pleasant,12.533333333333333,Cool,18.3,Pleasant,24.666666666666668,Pleasant,10,['Urban'],Urban
DEST_0078,Mystic Valley,India,Asia,Adventure,No,Winter,81.12,4.2,8.19,Ladakh,asia,34.0242098,77.2036739,"Rugged landscapes with towering mountains and serene monasteries create a tranquil yet awe-inspiring atmosphere, perfect for those seeking adventure and peace.",Budget,4,5,5,1,1,1,3,3,5,6.833333333333333,Cool,17.400000000000002,Pleasant,7.5,Cool,-4.5,Cold,10,['Adventure'],Adventure
DEST_0079,Serene Canyon,Argentina,South America,Nature,Yes,Spring,165.22,4.6,9.18,Salta,south_america,-25.1076701,-64.3494964,"Stunning mountain landscapes, vibrant local markets, and the warmth of traditional folklore create an inviting and colorful atmosphere.",Mid-range,4,4,5,1,3,3,4,3,4,16.400000000000002,Pleasant,11.133333333333333,Cool,18.233333333333334,Pleasant,21.066666666666666,Pleasant,5,['Nature'],Nature
DEST_0080,Serene Pagoda,Mexico,North America,City,Yes,Winter,175.75,5.0,8.08,Guanajuato,north_america,20.9876996,-101.0,"Winding cobblestone streets and colorful facades create a charming, vibrant atmosphere, where history and lively festivals fill the air with excitement.",Mid-range,5,3,3,1,4,3,4,3,2,22.233333333333334,Pleasant,21.166666666666668,Pleasant,18.866666666666664,Pleasant,15.866666666666665,Pleasant,5,['Urban'],Urban
DEST_0081,Serene Plaza,Egypt,Africa,Beach,No,Autumn,216.54,4.8,8.06,Sharm El Sheikh,africa,27.8644422,34.295447,Crystal-clear waters and vibrant coral reefs invite you to explore a world of underwater wonders while sun-drenched beaches promise pure relaxation.,Mid-range,3,4,4,5,3,4,3,4,3,24.133333333333336,Pleasant,32.766666666666666,Hot,26.066666666666666,Warm,15.766666666666666,Pleasant,5,['Beach'],Beach
DEST_0082,Golden Valley,Vietnam,Asia,Adventure,Yes,Winter,134.24,4.7,4.07,Sapa,asia,22.3359246,103.8426749,"Rolling green terraces and misty mountain vistas create a serene escape, where vibrant local cultures and tranquil landscapes embrace visitors warmly.",Budget,4,4,5,1,2,2,3,3,4,17.099999999999998,Pleasant,20.266666666666666,Pleasant,16.0,Pleasant,10.133333333333335,Cool,5,['Adventure'],Adventure
DEST_0083,Sacred Pagoda,Thailand,Asia,City,No,Winter,158.25,4.2,0.84,Bangkok,asia,13.7524938,100.4935089,Busy streets filled with vibrant markets and aromatic street food stalls create an exhilarating atmosphere that's both chaotic and captivating.,Budget,5,3,2,2,5,5,5,4,1,30.566666666666666,Hot,29.599999999999998,Warm,28.73333333333333,Warm,28.133333333333336,Warm,10,['Urban'],Urban
DEST_0084,Ancient Pagoda,Italy,Europe,Nature,No,Winter,265.73,3.9,3.22,Sicily,europe,37.587794,14.155048,"Sun-drenched landscapes, aromatic citrus groves, and vibrant markets create a sensory feast, while ancient ruins whisper stories of a rich, layered history.",Mid-range,5,3,4,4,3,3,5,3,3,11.533333333333331,Cool,23.8,Pleasant,15.5,Pleasant,6.966666666666666,Cool,8,['Nature'],Nature
DEST_0085,Lush Park,Germany,Europe,Adventure,No,Spring,129.27,4.5,0.85,Heidelberg,europe,49.4093582,8.694724,"Cobblestone streets lined with charming old buildings and the gentle flow of the Neckar River create an inviting, romantic atmosphere.",Mid-range,5,2,4,1,3,3,4,3,4,10.366666666666665,Cool,20.7,Pleasant,12.133333333333333,Cool,4.066666666666666,Cold,4,['Adventure'],Adventure
DEST_0086,Lush Pagoda,Australia,Oceania,Adventure,No,Autumn,126.4,4.8,1.71,Brisbane,oceania,-27.4689682,153.0234991,"Sun-drenched streets and lush riverside parks create a laid-back vibe, with vibrant markets and buzzing eateries adding a lively local flavor.",Mid-range,4,4,4,3,4,4,4,3,2,21.03333333333333,Pleasant,15.733333333333333,Pleasant,20.599999999999998,Pleasant,24.733333333333334,Pleasant,5,['Adventure'],Adventure
DEST_0087,Sacred Pagoda,Brazil,South America,City,No,Spring,228.02,4.5,2.55,Sao Paulo,south_america,-23.5506507,-46.6333824,"Energetic streets buzz with life, offering a tapestry of art, diverse cuisine, and vibrant nightlife that captivates every sense.",Mid-range,5,3,2,2,5,5,5,3,1,20.633333333333336,Pleasant,17.566666666666666,Pleasant,20.400000000000002,Pleasant,22.600000000000005,Pleasant,6,['Urban'],Urban
DEST_0088,Crystal Temple,Morocco,Africa,City,No,Spring,113.48,4.6,0.99,Marrakesh,africa,31.6258257,-7.9891608,"A sensory feast of vibrant colors, aromatic spices, bustling souks, and serene gardens, creating an enchanting and immersive experience for every visitor.",Budget,5,3,3,1,4,4,5,4,2,19.86666666666667,Pleasant,28.266666666666666,Warm,22.233333333333334,Pleasant,14.033333333333333,Cool,5,['Urban'],Urban
DEST_0089,Ancient Ruins,Brazil,South America,Historical,No,Spring,269.45,5.0,6.56,Sao Paulo,south_america,-23.5506507,-46.6333824,"Energetic streets buzz with life, offering a tapestry of art, diverse cuisine, and vibrant nightlife that captivates every sense.",Mid-range,5,3,2,2,5,5,5,3,1,20.633333333333336,Pleasant,17.566666666666666,Pleasant,20.400000000000002,Pleasant,22.600000000000005,Pleasant,6,"['History', 'Cultural', 'Architecture']","History, Cultural, Architecture"
DEST_0090,Serene Valley,Germany,Europe,City,No,Autumn,48.74,4.6,8.05,Berlin,europe,52.510885,13.3989367,"Eclectic streets filled with history, art, and a dynamic cultural scene create an atmosphere that's both invigorating and deeply engaging.",Mid-range,5,3,2,1,5,5,4,3,2,10.200000000000001,Cool,19.866666666666664,Pleasant,10.933333333333335,Cool,3.1999999999999997,Cold,5,['Urban'],Urban
DEST_0091,Grand Beach,Thailand,Asia,Adventure,No,Spring,127.78,4.0,1.25,Chiang Mai,asia,18.7882778,98.9858802,"Lush mountain landscapes and vibrant night markets create a serene yet lively atmosphere, inviting exploration and relaxation at every turn.",Budget,5,4,4,1,3,3,5,4,4,29.5,Warm,28.133333333333336,Warm,26.8,Warm,23.599999999999998,Pleasant,5,['Adventure'],Adventure
DEST_0092,Golden Park,Canada,North America,Adventure,No,Autumn,175.25,4.8,4.39,Calgary,north_america,51.0456064,-114.057541,"A dynamic blend of urban sophistication and stunning natural landscapes, where vibrant arts scenes meet the majestic Rockies under vast blue skies.",Mid-range,4,4,5,1,4,3,3,3,3,4.633333333333334,Cold,17.0,Pleasant,5.566666666666667,Cool,-6.133333333333333,Cold,5,['Adventure'],Adventure
DEST_0093,Crystal Plaza,China,Asia,Adventure,No,Summer,133.29,4.4,2.88,Lhasa,asia,29.6542054,91.1173015,High-altitude streets filled with the scent of incense and the sound of prayer wheels create a serene yet vibrant atmosphere.,Luxury,5,4,4,1,2,1,3,4,5,10.133333333333333,Cool,17.3,Pleasant,10.799999999999999,Cool,1.7,Cold,10,['Adventure'],Adventure
DEST_0094,Crystal Plaza,Thailand,Asia,Nature,No,Winter,238.27,4.6,6.77,Chiang Mai,asia,18.7882778,98.9858802,"Lush mountain landscapes and vibrant night markets create a serene yet lively atmosphere, inviting exploration and relaxation at every turn.",Budget,5,4,4,1,3,3,5,4,4,29.5,Warm,28.133333333333336,Warm,26.8,Warm,23.599999999999998,Pleasant,5,['Nature'],Nature
DEST_0095,Grand Ruins,Vietnam,Asia,Beach,No,Autumn,168.86,5.0,6.31,Hoi An,asia,15.8795863,108.3319406,"Charming lantern-lit streets, bustling markets, and the scent of fresh herbs create an inviting atmosphere that feels both timeless and vibrant.",Budget,5,3,3,3,2,2,5,3,4,27.366666666666664,Warm,30.166666666666668,Hot,27.066666666666666,Warm,22.73333333333333,Pleasant,4,['Beach'],Beach
DEST_0096,Golden Valley,India,Asia,City,No,Summer,74.03,4.4,3.88,Kolkata,asia,22.5726459,88.3638953,"Bustling streets filled with the aroma of spices, vibrant markets, and colonial architecture create an inviting atmosphere full of life and history.",Budget,5,2,3,1,4,3,5,3,2,29.633333333333336,Warm,29.866666666666664,Warm,27.399999999999995,Warm,21.099999999999998,Pleasant,5,['Urban'],Urban
DEST_0097,Mystic Beach,Morocco,Africa,Adventure,No,Winter,138.13,5.0,1.43,Fès,africa,34.0346534,-5.0161926,"Winding alleys filled with vibrant souks, the aroma of spices, and the sound of artisans at work create an enchanting, timeless atmosphere.",Budget,5,2,2,1,3,2,4,3,3,16.5,Pleasant,26.399999999999995,Warm,19.599999999999998,Pleasant,11.366666666666667,Cool,6,['Adventure'],Adventure
DEST_0098,Hidden Falls,Brazil,South America,Adventure,Yes,Spring,30.0,4.2,2.15,Rio de Janeiro,south_america,-22.9110137,-43.2093727,"Vibrant streets pulse with samba rhythms, stunning beaches meet lush mountains, and every corner offers a burst of color and life.",Mid-range,4,4,5,5,4,5,4,3,2,24.700000000000003,Pleasant,21.5,Pleasant,23.96666666666667,Pleasant,26.766666666666666,Warm,6,['Adventure'],Adventure
DEST_0099,Ancient Pagoda,China,Asia,Historical,Yes,Autumn,50.25,4.1,6.35,Shanghai,asia,31.2312707,121.4700152,"Vibrant streets pulse with energy, blending futuristic skyscrapers with ancient temples, while enticing aromas from street food stalls fill the air.",Mid-range,5,3,2,1,5,5,5,3,2,17.266666666666666,Pleasant,28.400000000000002,Warm,20.333333333333332,Pleasant,7.433333333333333,Cool,6,"['History', 'Cultural', 'Architecture']","History, Cultural, Architecture"
DEST_0100,Hidden Temple,France,Europe,Religious,No,Summer,128.0,4.5,4.06,Strasbourg,europe,48.584614,7.7507127,"Charming cobblestone streets lined with half-timbered houses, the aroma of freshly baked pastries, and the gentle flow of the canals create a fairy-tale ambiance.",Mid-range,5,2,3,1,4,3,4,3,3,11.5,Cool,20.900000000000002,Pleasant,11.833333333333334,Cool,4.166666666666667,Cold,5,"['History', 'Cultural', 'Architecture']","History, Cultural, Architecture"
DEST_0101,Serene Temple,Morocco,Africa,Beach,No,Summer,152.93,5.0,8.64,Essaouira,africa,31.5118281,-9.7620903,"Charming coastal breezes mix with the vibrant hum of bustling souks and the scent of fresh seafood, creating a laid-back, inviting atmosphere.",Budget,4,3,4,4,3,3,4,3,4,18.6,Pleasant,23.8,Pleasant,21.333333333333332,Pleasant,15.966666666666669,Pleasant,4,['Beach'],Beach
DEST_0102,Lush Valley,France,Europe,Nature,Yes,Winter,100.92,4.6,1.17,Annecy,europe,45.8992348,6.1288847,"Charming canals and cobblestone streets weave through a picturesque town, surrounded by stunning alpine views and the serene waters of a crystal-clear lake.",Mid-range,4,4,5,3,3,3,4,3,4,11.1,Cool,21.0,Pleasant,11.966666666666667,Cool,3.6333333333333333,Cold,4,['Nature'],Nature
DEST_0103,Hidden Ruins,South Africa,Africa,City,No,Autumn,139.88,4.5,6.06,Pretoria,africa,-25.7459277,28.1879101,"Wide tree-lined avenues and vibrant jacaranda blooms create a serene backdrop for exploring cultural landmarks and lively markets in a warm, welcoming atmosphere.",Mid-range,4,3,4,1,4,3,4,3,2,18.8,Pleasant,13.733333333333334,Cool,21.5,Pleasant,22.733333333333334,Pleasant,4,['Urban'],Urban
DEST_0104,Mystic Canyon,Egypt,Africa,Nature,No,Summer,155.68,4.7,4.19,Sharm El Sheikh,africa,27.8644422,34.295447,Crystal-clear waters and vibrant coral reefs invite you to explore a world of underwater wonders while sun-drenched beaches promise pure relaxation.,Mid-range,3,4,4,5,3,4,3,4,3,24.133333333333336,Pleasant,32.766666666666666,Hot,26.066666666666666,Warm,15.766666666666666,Pleasant,5,['Nature'],Nature
DEST_0105,Grand Plaza,Greece,Europe,Nature,No,Summer,119.24,5.0,5.68,Nafplio,europe,37.5659229,22.8068782,"Charming cobblestone streets, vibrant bougainvillea, and the gentle sea breeze create a serene atmosphere perfect for leisurely exploration and relaxation.",Mid-range,4,3,4,3,3,3,4,3,4,15.633333333333335,Pleasant,27.23333333333333,Warm,18.599999999999998,Pleasant,8.733333333333333,Cool,3,['Nature'],Nature
DEST_0106,Crystal Park,Canada,North America,Beach,Yes,Winter,142.41,4.7,9.63,Vancouver Island,north_america,49.5929495,-125.702557,"Lush rainforests, rugged coastlines, and charming towns create an inviting atmosphere, perfect for outdoor adventures and tranquil moments by the sea.",Mid-range,3,4,5,4,2,2,3,4,4,9.166666666666666,Cool,16.5,Pleasant,10.0,Cool,3.8333333333333335,Cold,8,['Beach'],Beach
DEST_0107,Grand Falls,Greece,Europe,Nature,No,Summer,125.68,4.6,3.53,Nafplio,europe,37.5659229,22.8068782,"Charming cobblestone streets, vibrant bougainvillea, and the gentle sea breeze create a serene atmosphere perfect for leisurely exploration and relaxation.",Mid-range,4,3,4,3,3,3,4,3,4,15.633333333333335,Pleasant,27.23333333333333,Warm,18.599999999999998,Pleasant,8.733333333333333,Cool,3,['Nature'],Nature
DEST_0108,Grand Pagoda,Spain,Europe,Nature,Yes,Spring,120.53,4.8,1.62,Valencia,europe,39.4697065,-0.3763353,"Sun-drenched streets lined with orange trees, vibrant markets, and a seamless blend of ancient history and modern art create a captivating atmosphere.",Mid-range,4,3,4,4,4,4,5,3,3,16.633333333333336,Pleasant,25.73333333333333,Warm,19.633333333333336,Pleasant,12.233333333333334,Cool,5,['Nature'],Nature
DEST_0109,Lush Ruins,Greece,Europe,Adventure,No,Spring,197.6,4.9,8.84,Crete,europe,35.3084952,24.46334232,"Sun-drenched beaches, ancient ruins, and vibrant local markets create a tapestry of experiences that feel both timeless and refreshingly alive.",Mid-range,4,4,5,5,3,3,5,4,4,16.833333333333332,Pleasant,26.366666666666664,Warm,20.233333333333334,Pleasant,11.966666666666667,Cool,8,['Adventure'],Adventure
DEST_0110,Sacred Pagoda,Thailand,Asia,City,No,Spring,190.64,4.7,3.18,Bangkok,asia,13.7524938,100.4935089,Busy streets filled with vibrant markets and aromatic street food stalls create an exhilarating atmosphere that's both chaotic and captivating.,Budget,5,3,2,2,5,5,5,4,1,30.566666666666666,Hot,29.599999999999998,Warm,28.73333333333333,Warm,28.133333333333336,Warm,10,['Urban'],Urban
DEST_0111,Serene Valley,India,Asia,Adventure,No,Spring,177.59,4.3,8.16,Goa,asia,15.3004543,74.0855134,"Golden beaches stretch endlessly alongside vibrant markets and aromatic spice-scented air, offering a perfect blend of relaxation and lively culture.",Mid-range,4,4,3,5,3,5,4,3,3,29.166666666666668,Warm,26.900000000000002,Warm,27.566666666666666,Warm,26.7,Warm,5,['Adventure'],Adventure
DEST_0112,Grand Falls,Brazil,South America,Adventure,No,Winter,148.95,4.5,4.03,Rio de Janeiro,south_america,-22.9110137,-43.2093727,"Vibrant streets pulse with samba rhythms, stunning beaches meet lush mountains, and every corner offers a burst of color and life.",Mid-range,4,4,5,5,4,5,4,3,2,24.700000000000003,Pleasant,21.5,Pleasant,23.96666666666667,Pleasant,26.766666666666666,Warm,6,['Adventure'],Adventure
DEST_0113,Serene Falls,France,Europe,Adventure,Yes,Spring,116.54,4.8,9.34,Annecy,europe,45.8992348,6.1288847,"Charming canals and cobblestone streets weave through a picturesque town, surrounded by stunning alpine views and the serene waters of a crystal-clear lake.",Mid-range,4,4,5,3,3,3,4,3,4,11.1,Cool,21.0,Pleasant,11.966666666666667,Cool,3.6333333333333333,Cold,4,['Adventure'],Adventure
DEST_0114,Crystal Forest,Brazil,South America,Historical,No,Spring,139.12,4.8,7.63,Sao Paulo,south_america,-23.5506507,-46.6333824,"Energetic streets buzz with life, offering a tapestry of art, diverse cuisine, and vibrant nightlife that captivates every sense.",Mid-range,5,3,2,2,5,5,5,3,1,20.633333333333336,Pleasant,17.566666666666666,Pleasant,20.400000000000002,Pleasant,22.600000000000005,Pleasant,6,"['History', 'Cultural', 'Architecture']","History, Cultural, Architecture"
DEST_0115,Grand Pagoda,France,Europe,Nature,Yes,Winter,129.6,4.6,9.07,Annecy,europe,45.8992348,6.1288847,"Charming canals and cobblestone streets weave through a picturesque town, surrounded by stunning alpine views and the serene waters of a crystal-clear lake.",Mid-range,4,4,5,3,3,3,4,3,4,11.1,Cool,21.0,Pleasant,11.966666666666667,Cool,3.6333333333333333,Cold,4,['Nature'],Nature
DEST_0116,Lush Pagoda,New Zealand,Oceania,City,No,Autumn,215.27,4.5,3.54,Wellington,oceania,-41.2887953,174.7772114,"Charming harborside views, vibrant arts scene, and a cozy mix of urban buzz and nature create a welcoming, eclectic atmosphere.",Mid-range,4,3,4,3,4,4,4,3,2,15.033333333333333,Pleasant,10.966666666666669,Cool,13.266666666666666,Cool,17.633333333333333,Pleasant,6,['Urban'],Urban
DEST_0117,Serene Canyon,France,Europe,Beach,Yes,Spring,138.04,4.8,0.6,Ajaccio,europe,41.9263991,8.7376029,"Nestled between mountains and sea, this charming coastal town offers sunlit streets, vibrant markets, and a rich tapestry of history and culture.",Mid-range,4,3,4,4,3,3,4,3,4,14.300000000000002,Cool,24.166666666666668,Pleasant,17.733333333333334,Pleasant,10.133333333333333,Cool,5,['Beach'],Beach
DEST_0118,Sacred Falls,Kenya,Africa,Nature,No,Spring,166.21,4.5,9.53,Nairobi,africa,-1.30261485,36.82884202,"Bustling streets filled with colorful markets, the aroma of street food, and a lively mix of cultures create a dynamic urban experience.",Mid-range,4,4,5,1,4,3,3,3,2,20.666666666666668,Pleasant,18.3,Pleasant,19.966666666666665,Pleasant,20.8,Pleasant,5,['Nature'],Nature
DEST_0119,Lush Canyon,Thailand,Asia,Religious,No,Spring,245.62,4.8,4.76,Bangkok,asia,13.7524938,100.4935089,Busy streets filled with vibrant markets and aromatic street food stalls create an exhilarating atmosphere that's both chaotic and captivating.,Budget,5,3,2,2,5,5,5,4,1,30.566666666666666,Hot,29.599999999999998,Warm,28.73333333333333,Warm,28.133333333333336,Warm,10,"['History', 'Cultural', 'Architecture']","History, Cultural, Architecture"
DEST_0120,Serene Falls,Argentina,South America,Historical,Yes,Winter,99.7,4.1,6.89,Buenos Aires,south_america,-34.6083696,-58.4440583,"Lively streets filled with tango rhythms, vibrant markets, and historic architecture create an irresistible blend of culture and energy.",Mid-range,5,3,2,2,5,5,5,3,2,18.766666666666666,Pleasant,12.533333333333333,Cool,18.3,Pleasant,24.666666666666668,Pleasant,10,"['History', 'Cultural', 'Architecture']","History, Cultural, Architecture"
DEST_0121,Lush Canyon,Greece,Europe,Religious,Yes,Winter,188.53,4.7,8.0,Athens,europe,37.9755648,23.7348324,"Ancient ruins stand proudly against a backdrop of vibrant street life and bustling markets, where history and modernity create an electrifying blend.",Mid-range,5,3,3,3,4,4,5,3,2,17.2,Pleasant,28.266666666666666,Warm,20.633333333333333,Pleasant,11.433333333333332,Cool,5,"['History', 'Cultural', 'Architecture']","History, Cultural, Architecture"
DEST_0122,Serene Canyon,South Africa,Africa,Nature,No,Spring,149.39,4.2,1.05,Pretoria,africa,-25.7459277,28.1879101,"Wide tree-lined avenues and vibrant jacaranda blooms create a serene backdrop for exploring cultural landmarks and lively markets in a warm, welcoming atmosphere.",Mid-range,4,3,4,1,4,3,4,3,2,18.8,Pleasant,13.733333333333334,Cool,21.5,Pleasant,22.733333333333334,Pleasant,4,['Nature'],Nature
DEST_0123,Sacred Ruins,Mexico,North America,Historical,No,Winter,45.5,5.0,8.93,San Cristóbal de las Casas,north_america,16.735377,-92.63873,"Charming cobblestone streets, vibrant markets, and colorful colonial architecture create a warm and inviting atmosphere, perfect for leisurely exploration.",Budget,4,3,4,1,2,3,4,3,4,17.26666666666667,Pleasant,17.433333333333334,Pleasant,16.3,Pleasant,14.5,Cool,4,"['History', 'Cultural', 'Architecture']","History, Cultural, Architecture"
DEST_0124,Mystic Pagoda,Brazil,South America,Beach,No,Summer,108.73,4.4,1.86,Salvador da Bahia,south_america,-13.2432762,-43.3742847,"Lively streets filled with music and dance, vibrant markets, and stunning coastal views create an energetic yet laid-back atmosphere.",Mid-range,5,3,4,4,3,4,5,3,2,27.2,Warm,25.600000000000005,Warm,28.866666666666664,Warm,26.96666666666667,Warm,5,['Beach'],Beach
DEST_0125,Lush Falls,Greece,Europe,Beach,No,Spring,180.69,4.9,1.46,Crete,europe,35.3084952,24.46334232,"Sun-drenched beaches, ancient ruins, and vibrant local markets create a tapestry of experiences that feel both timeless and refreshingly alive.",Mid-range,4,4,5,5,3,3,5,4,4,16.833333333333332,Pleasant,26.366666666666664,Warm,20.233333333333334,Pleasant,11.966666666666667,Cool,8,['Beach'],Beach
DEST_0126,Lush Valley,United States,North America,Beach,No,Spring,162.25,4.3,1.19,San Diego,north_america,32.7174202,-117.162772,"Sun-drenched beaches, vibrant neighborhoods, and an easygoing vibe invite you to savor ocean breezes and explore diverse, lively cultural spots.",Mid-range,4,4,4,5,4,4,4,4,3,16.96666666666667,Pleasant,21.266666666666666,Pleasant,20.066666666666666,Pleasant,14.566666666666668,Cool,5,['Beach'],Beach
DEST_0127,Golden Ruins,Spain,Europe,Adventure,Yes,Autumn,177.96,4.8,1.27,Asturias,europe,43.3133868,-5.94192,"Lush green landscapes meet rugged coastlines, offering a sense of tranquility and adventure with every breathtaking vista and charming village.",Mid-range,4,4,5,4,2,3,4,3,4,12.333333333333334,Cool,18.499999999999996,Pleasant,14.666666666666666,Cool,9.1,Cool,6,['Adventure'],Adventure
DEST_0128,Serene Valley,Germany,Europe,Nature,Yes,Spring,77.6,4.1,8.22,Heidelberg,europe,49.4093582,8.694724,"Cobblestone streets lined with charming old buildings and the gentle flow of the Neckar River create an inviting, romantic atmosphere.",Mid-range,5,2,4,1,3,3,4,3,4,10.366666666666665,Cool,20.7,Pleasant,12.133333333333333,Cool,4.066666666666666,Cold,4,['Nature'],Nature
DEST_0129,Grand Pagoda,New Zealand,Oceania,Adventure,No,Winter,116.79,4.9,1.29,Rotorua,oceania,-38.1381493,176.252922,"Steam rises from bubbling mud pools and the air is filled with the scent of sulfur, creating a unique geothermal wonderland.",Mid-range,4,4,5,2,3,3,3,5,3,13.066666666666668,Cool,7.866666666666667,Cool,11.233333333333334,Cool,16.566666666666666,Pleasant,4,['Adventure'],Adventure
DEST_0130,Golden Park,India,Asia,Historical,No,Autumn,165.55,4.9,4.53,Mumbai,asia,19.054999,72.8692035,"A bustling metropolis where vibrant street life, aromatic food stalls, and historic landmarks blend with a dynamic energy that never sleeps.",Mid-range,5,3,2,3,5,4,5,3,1,29.933333333333334,Warm,28.53333333333333,Warm,28.900000000000002,Warm,26.5,Warm,6,"['History', 'Cultural', 'Architecture']","History, Cultural, Architecture"
DEST_0131,Ancient Ruins,Greece,Europe,City,Yes,Winter,134.88,4.5,4.95,Athens,europe,37.9755648,23.7348324,"Ancient ruins stand proudly against a backdrop of vibrant street life and bustling markets, where history and modernity create an electrifying blend.",Mid-range,5,3,3,3,4,4,5,3,2,17.2,Pleasant,28.266666666666666,Warm,20.633333333333333,Pleasant,11.433333333333332,Cool,5,['Urban'],Urban
DEST_0132,Grand Pagoda,Mexico,North America,City,Yes,Summer,166.14,4.3,7.59,Guanajuato,north_america,20.9876996,-101.0,"Winding cobblestone streets and colorful facades create a charming, vibrant atmosphere, where history and lively festivals fill the air with excitement.",Mid-range,5,3,3,1,4,3,4,3,2,22.233333333333334,Pleasant,21.166666666666668,Pleasant,18.866666666666664,Pleasant,15.866666666666665,Pleasant,5,['Urban'],Urban
DEST_0133,Crystal Canyon,Egypt,Africa,Adventure,Yes,Spring,174.63,4.5,4.06,Sharm El Sheikh,africa,27.8644422,34.295447,Crystal-clear waters and vibrant coral reefs invite you to explore a world of underwater wonders while sun-drenched beaches promise pure relaxation.,Mid-range,3,4,4,5,3,4,3,4,3,24.133333333333336,Pleasant,32.766666666666666,Hot,26.066666666666666,Warm,15.766666666666666,Pleasant,5,['Adventure'],Adventure
DEST_0134,Serene Plaza,India,Asia,Beach,No,Winter,184.51,4.4,2.62,Goa,asia,15.3004543,74.0855134,"Golden beaches stretch endlessly alongside vibrant markets and aromatic spice-scented air, offering a perfect blend of relaxation and lively culture.",Mid-range,4,4,3,5,3,5,4,3,3,29.166666666666668,Warm,26.900000000000002,Warm,27.566666666666666,Warm,26.7,Warm,5,['Beach'],Beach
DEST_0135,Crystal Ruins,Greece,Europe,Nature,No,Winter,153.48,4.8,9.93,Nafplio,europe,37.5659229,22.8068782,"Charming cobblestone streets, vibrant bougainvillea, and the gentle sea breeze create a serene atmosphere perfect for leisurely exploration and relaxation.",Mid-range,4,3,4,3,3,3,4,3,4,15.633333333333335,Pleasant,27.23333333333333,Warm,18.599999999999998,Pleasant,8.733333333333333,Cool,3,['Nature'],Nature
DEST_0136,Crystal Pagoda,Spain,Europe,Beach,No,Winter,154.88,4.3,9.71,Barcelona,europe,41.3828939,2.1774322,"Vibrant streets filled with Gaudí's whimsical architecture, lively tapas bars, and the warm Mediterranean breeze create an inviting and dynamic atmosphere.",Mid-range,5,3,3,4,5,5,5,3,2,15.066666666666668,Pleasant,24.8,Pleasant,17.8,Pleasant,9.766666666666667,Cool,6,['Beach'],Beach
DEST_0137,Crystal Forest,Greece,Europe,Adventure,No,Spring,263.79,4.6,7.11,Crete,europe,35.3084952,24.46334232,"Sun-drenched beaches, ancient ruins, and vibrant local markets create a tapestry of experiences that feel both timeless and refreshingly alive.",Mid-range,4,4,5,5,3,3,5,4,4,16.833333333333332,Pleasant,26.366666666666664,Warm,20.233333333333334,Pleasant,11.966666666666667,Cool,8,['Adventure'],Adventure
DEST_0138,Golden Plaza,New Zealand,Oceania,Adventure,Yes,Autumn,257.66,4.3,6.05,Queenstown,oceania,-45.0321923,168.661,"Surrounded by majestic mountains and shimmering lakes, this place offers thrilling adventures and serene landscapes that captivate your senses.",Luxury,3,5,5,2,3,4,4,4,3,10.633333333333333,Cool,4.533333333333332,Cold,9.799999999999999,Cool,15.733333333333334,Pleasant,8,['Adventure'],Adventure
DEST_0139,Serene Park,Peru,South America,Nature,Yes,Spring,144.45,4.8,6.39,Cuzco,south_america,-13.51695415,-71.97927121,"Cobblestone streets, vibrant markets, and the scent of fresh Andean cuisine surround you in a city where ancient history meets lively modern culture.",Budget,5,4,5,1,3,3,4,3,3,12.700000000000001,Cool,11.533333333333333,Cool,14.033333333333333,Cool,13.266666666666666,Cool,6,['Nature'],Nature
DEST_0140,Mystic Pagoda,South Africa,Africa,Beach,No,Spring,108.01,4.3,4.91,Cape Town,africa,-33.9288301,18.4172197,"A vibrant coastal city surrounded by rugged mountains and pristine beaches, offering laid-back afternoons, diverse cultures, and breathtaking views.",Mid-range,4,4,5,4,4,4,4,3,3,17.53333333333333,Pleasant,12.9,Cool,16.666666666666668,Pleasant,21.2,Pleasant,8,['Beach'],Beach
DEST_0141,Mystic Park,Australia,Oceania,Religious,No,Autumn,201.63,4.0,1.24,Sydney,oceania,-33.8698439,151.2082848,"A lively harbor city where golden beaches meet urban sophistication, offering a blend of vibrant culture and stunning natural beauty.",Luxury,4,4,4,5,5,4,4,3,2,19.433333333333334,Pleasant,14.033333333333331,Cool,19.066666666666666,Pleasant,23.366666666666664,Pleasant,8,"['History', 'Cultural', 'Architecture']","History, Cultural, Architecture"
DEST_0142,Lush Falls,Thailand,Asia,Religious,No,Autumn,167.09,5.0,3.44,Bangkok,asia,13.7524938,100.4935089,Busy streets filled with vibrant markets and aromatic street food stalls create an exhilarating atmosphere that's both chaotic and captivating.,Budget,5,3,2,2,5,5,5,4,1,30.566666666666666,Hot,29.599999999999998,Warm,28.73333333333333,Warm,28.133333333333336,Warm,10,"['History', 'Cultural', 'Architecture']","History, Cultural, Architecture"
DEST_0143,Mystic Falls,Thailand,Asia,Historical,No,Spring,178.57,4.8,2.04,Bangkok,asia,13.7524938,100.4935089,Busy streets filled with vibrant markets and aromatic street food stalls create an exhilarating atmosphere that's both chaotic and captivating.,Budget,5,3,2,2,5,5,5,4,1,30.566666666666666,Hot,29.599999999999998,Warm,28.73333333333333,Warm,28.133333333333336,Warm,10,"['History', 'Cultural', 'Architecture']","History, Cultural, Architecture"
DEST_0144,Grand Forest,Thailand,Asia,Religious,Yes,Autumn,83.99,5.0,9.36,Bangkok,asia,13.7524938,100.4935089,Busy streets filled with vibrant markets and aromatic street food stalls create an exhilarating atmosphere that's both chaotic and captivating.,Budget,5,3,2,2,5,5,5,4,1,30.566666666666666,Hot,29.599999999999998,Warm,28.73333333333333,Warm,28.133333333333336,Warm,10,"['History', 'Cultural', 'Architecture']","History, Cultural, Architecture"
DEST_0145,Hidden Valley,Italy,Europe,Adventure,No,Summer,146.32,4.4,8.2,Sardinia,europe,40.0912813,9.0305773,"Crystal-clear waters, rugged coastlines, and charming villages create a serene escape where you can unwind and savor local flavors.",Mid-range,3,4,5,5,3,3,4,4,4,15.633333333333333,Pleasant,25.866666666666664,Warm,18.733333333333334,Pleasant,11.333333333333334,Cool,8,['Adventure'],Adventure
DEST_0146,Sacred Pagoda,China,Asia,Nature,No,Summer,64.34,4.9,9.71,Yangshuo,asia,24.8630286,110.4871831,Lush karst mountains and tranquil rivers create a serene backdrop for cycling through rice paddies and exploring vibrant local markets.,Budget,3,4,5,2,2,2,3,3,4,19.966666666666665,Pleasant,28.066666666666666,Warm,21.866666666666664,Pleasant,10.566666666666668,Cool,5,['Nature'],Nature
DEST_0147,Lush Pagoda,Thailand,Asia,Beach,No,Winter,163.78,4.6,4.95,Koh Lanta,asia,13.8212743,100.6306935,"Golden beaches, gentle waves, and lush greenery create a serene escape where you can unwind and soak in the tranquil island vibe.",Budget,3,4,4,5,2,3,4,4,4,30.599999999999998,Hot,29.666666666666668,Warm,28.633333333333336,Warm,27.733333333333334,Warm,5,['Beach'],Beach
DEST_0148,Crystal Pagoda,Italy,Europe,City,No,Spring,70.28,4.3,1.04,Milan,europe,45.4641943,9.1896346,"Chic streets lined with fashion boutiques, historic architecture, and lively piazzas create a sophisticated yet welcoming atmosphere, perfect for leisurely exploration.",Luxury,5,2,2,1,5,4,5,3,2,14.066666666666668,Cool,24.833333333333332,Pleasant,14.933333333333332,Cool,5.166666666666667,Cool,6,['Urban'],Urban
DEST_0149,Serene Ruins,Vietnam,Asia,Beach,No,Summer,162.97,4.6,10.0,Hoi An,asia,15.8795863,108.3319406,"Charming lantern-lit streets, bustling markets, and the scent of fresh herbs create an inviting atmosphere that feels both timeless and vibrant.",Budget,5,3,3,3,2,2,5,3,4,27.366666666666664,Warm,30.166666666666668,Hot,27.066666666666666,Warm,22.73333333333333,Pleasant,4,['Beach'],Beach
DEST_0150,Ancient Temple,Argentina,South America,Nature,No,Summer,150.26,4.5,7.81,Salta,south_america,-25.1076701,-64.3494964,"Stunning mountain landscapes, vibrant local markets, and the warmth of traditional folklore create an inviting and colorful atmosphere.",Mid-range,4,4,5,1,3,3,4,3,4,16.400000000000002,Pleasant,11.133333333333333,Cool,18.233333333333334,Pleasant,21.066666666666666,Pleasant,5,['Nature'],Nature
DEST_0151,Mystic Pagoda,Greece,Europe,Adventure,No,Summer,134.35,4.0,1.73,Crete,europe,35.3084952,24.46334232,"Sun-drenched beaches, ancient ruins, and vibrant local markets create a tapestry of experiences that feel both timeless and refreshingly alive.",Mid-range,4,4,5,5,3,3,5,4,4,16.833333333333332,Pleasant,26.366666666666664,Warm,20.233333333333334,Pleasant,11.966666666666667,Cool,8,['Adventure'],Adventure
DEST_0152,Lush Pagoda,Argentina,South America,Nature,No,Spring,156.01,4.7,2.67,Salta,south_america,-25.1076701,-64.3494964,"Stunning mountain landscapes, vibrant local markets, and the warmth of traditional folklore create an inviting and colorful atmosphere.",Mid-range,4,4,5,1,3,3,4,3,4,16.400000000000002,Pleasant,11.133333333333333,Cool,18.233333333333334,Pleasant,21.066666666666666,Pleasant,5,['Nature'],Nature
DEST_0153,Sacred Ruins,Mexico,North America,Adventure,No,Winter,203.02,5.0,3.9,Puerto Vallarta,north_america,20.6407176,-105.220306,"Golden beaches meet the lush Sierra Madre mountains, creating a vibrant yet laid-back atmosphere filled with colorful markets and lively nightlife.",Mid-range,3,4,4,5,3,4,4,4,3,23.066666666666666,Pleasant,25.3,Warm,24.3,Pleasant,21.2,Pleasant,5,['Adventure'],Adventure
DEST_0154,Sacred Canyon,Spain,Europe,Historical,No,Autumn,166.62,4.3,5.44,Barcelona,europe,41.3828939,2.1774322,"Vibrant streets filled with Gaudí's whimsical architecture, lively tapas bars, and the warm Mediterranean breeze create an inviting and dynamic atmosphere.",Mid-range,5,3,3,4,5,5,5,3,2,15.066666666666668,Pleasant,24.8,Pleasant,17.8,Pleasant,9.766666666666667,Cool,6,"['History', 'Cultural', 'Architecture']","History, Cultural, Architecture"
DEST_0155,Lush Ruins,France,Europe,Historical,No,Spring,155.74,5.0,8.6,Strasbourg,europe,48.584614,7.7507127,"Charming cobblestone streets lined with half-timbered houses, the aroma of freshly baked pastries, and the gentle flow of the canals create a fairy-tale ambiance.",Mid-range,5,2,3,1,4,3,4,3,3,11.5,Cool,20.900000000000002,Pleasant,11.833333333333334,Cool,4.166666666666667,Cold,5,"['History', 'Cultural', 'Architecture']","History, Cultural, Architecture"
DEST_0156,Sacred Forest,India,Asia,Nature,No,Autumn,253.04,5.0,8.83,Ladakh,asia,34.0242098,77.2036739,"Rugged landscapes with towering mountains and serene monasteries create a tranquil yet awe-inspiring atmosphere, perfect for those seeking adventure and peace.",Budget,4,5,5,1,1,1,3,3,5,6.833333333333333,Cool,17.400000000000002,Pleasant,7.5,Cool,-4.5,Cold,10,['Nature'],Nature
DEST_0157,Serene Park,China,Asia,Adventure,No,Spring,98.98,4.4,0.77,Yangshuo,asia,24.8630286,110.4871831,Lush karst mountains and tranquil rivers create a serene backdrop for cycling through rice paddies and exploring vibrant local markets.,Budget,3,4,5,2,2,2,3,3,4,19.966666666666665,Pleasant,28.066666666666666,Warm,21.866666666666664,Pleasant,10.566666666666668,Cool,5,['Adventure'],Adventure
DEST_0158,Lush Plaza,China,Asia,City,Yes,Autumn,182.27,4.9,7.19,Shanghai,asia,31.2312707,121.4700152,"Vibrant streets pulse with energy, blending futuristic skyscrapers with ancient temples, while enticing aromas from street food stalls fill the air.",Mid-range,5,3,2,1,5,5,5,3,2,17.266666666666666,Pleasant,28.400000000000002,Warm,20.333333333333332,Pleasant,7.433333333333333,Cool,6,['Urban'],Urban
DEST_0159,Golden Ruins,China,Asia,Religious,No,Winter,128.32,4.4,0.64,Shanghai,asia,31.2312707,121.4700152,"Vibrant streets pulse with energy, blending futuristic skyscrapers with ancient temples, while enticing aromas from street food stalls fill the air.",Mid-range,5,3,2,1,5,5,5,3,2,17.266666666666666,Pleasant,28.400000000000002,Warm,20.333333333333332,Pleasant,7.433333333333333,Cool,6,"['History', 'Cultural', 'Architecture']","History, Cultural, Architecture"
DEST_0160,Lush Valley,Australia,Oceania,Nature,No,Spring,202.92,4.0,4.23,Sydney,oceania,-33.8698439,151.2082848,"A lively harbor city where golden beaches meet urban sophistication, offering a blend of vibrant culture and stunning natural beauty.",Luxury,4,4,4,5,5,4,4,3,2,19.433333333333334,Pleasant,14.033333333333331,Cool,19.066666666666666,Pleasant,23.366666666666664,Pleasant,8,['Nature'],Nature
DEST_0161,Grand Ruins,Australia,Oceania,Adventure,No,Summer,194.3,4.5,3.81,Brisbane,oceania,-27.4689682,153.0234991,"Sun-drenched streets and lush riverside parks create a laid-back vibe, with vibrant markets and buzzing eateries adding a lively local flavor.",Mid-range,4,4,4,3,4,4,4,3,2,21.03333333333333,Pleasant,15.733333333333333,Pleasant,20.599999999999998,Pleasant,24.733333333333334,Pleasant,5,['Adventure'],Adventure
DEST_0162,Grand Valley,Spain,Europe,Adventure,No,Spring,225.12,4.5,4.27,Asturias,europe,43.3133868,-5.94192,"Lush green landscapes meet rugged coastlines, offering a sense of tranquility and adventure with every breathtaking vista and charming village.",Mid-range,4,4,5,4,2,3,4,3,4,12.333333333333334,Cool,18.499999999999996,Pleasant,14.666666666666666,Cool,9.1,Cool,6,['Adventure'],Adventure
DEST_0163,Lush Forest,Peru,South America,Religious,No,Autumn,199.08,4.6,9.52,Lima,south_america,-12.0621065,-77.0365256,"A lively blend of colonial charm and vibrant modernity, with bustling markets, ocean views, and the tantalizing aroma of street food.",Mid-range,5,3,3,2,4,4,5,3,2,21.46666666666667,Pleasant,17.433333333333334,Pleasant,17.933333333333334,Pleasant,22.633333333333336,Pleasant,6,"['History', 'Cultural', 'Architecture']","History, Cultural, Architecture"
DEST_0164,Crystal Temple,Italy,Europe,Nature,Yes,Summer,64.83,4.5,4.86,Sicily,europe,37.587794,14.155048,"Sun-drenched landscapes, aromatic citrus groves, and vibrant markets create a sensory feast, while ancient ruins whisper stories of a rich, layered history.",Mid-range,5,3,4,4,3,3,5,3,3,11.533333333333331,Cool,23.8,Pleasant,15.5,Pleasant,6.966666666666666,Cool,8,['Nature'],Nature
DEST_0165,Ancient Pagoda,Spain,Europe,Adventure,No,Summer,149.69,4.6,3.62,Asturias,europe,43.3133868,-5.94192,"Lush green landscapes meet rugged coastlines, offering a sense of tranquility and adventure with every breathtaking vista and charming village.",Mid-range,4,4,5,4,2,3,4,3,4,12.333333333333334,Cool,18.499999999999996,Pleasant,14.666666666666666,Cool,9.1,Cool,6,['Adventure'],Adventure
DEST_0166,Golden Falls,United States,North America,Religious,No,Spring,84.78,4.7,1.22,New York,north_america,40.7127281,-74.0060152,"The city buzzes with energy, offering iconic skylines, diverse cultures, and a sensory overload of sights, sounds, and tastes at every corner.",Luxury,5,3,3,2,5,5,5,3,1,12.033333333333333,Cool,24.599999999999998,Pleasant,15.533333333333331,Pleasant,2.9,Cold,8,"['History', 'Cultural', 'Architecture']","History, Cultural, Architecture"
DEST_0167,Mystic Temple,Italy,Europe,Historical,No,Spring,94.94,4.6,3.78,Milan,europe,45.4641943,9.1896346,"Chic streets lined with fashion boutiques, historic architecture, and lively piazzas create a sophisticated yet welcoming atmosphere, perfect for leisurely exploration.",Luxury,5,2,2,1,5,4,5,3,2,14.066666666666668,Cool,24.833333333333332,Pleasant,14.933333333333332,Cool,5.166666666666667,Cool,6,"['History', 'Cultural', 'Architecture']","History, Cultural, Architecture"
DEST_0168,Ancient Park,Australia,Oceania,Adventure,Yes,Winter,146.87,4.8,6.84,Brisbane,oceania,-27.4689682,153.0234991,"Sun-drenched streets and lush riverside parks create a laid-back vibe, with vibrant markets and buzzing eateries adding a lively local flavor.",Mid-range,4,4,4,3,4,4,4,3,2,21.03333333333333,Pleasant,15.733333333333333,Pleasant,20.599999999999998,Pleasant,24.733333333333334,Pleasant,5,['Adventure'],Adventure
DEST_0169,Mystic Temple,China,Asia,Nature,No,Winter,127.67,4.4,0.89,Chengdu,asia,30.6598628,104.0633717,"A lively blend of spicy street food aromas, lush green parks, and the gentle charm of giant pandas creates an inviting, laid-back atmosphere.",Mid-range,5,3,4,1,4,3,5,3,2,19.400000000000002,Pleasant,27.03333333333333,Warm,18.666666666666668,Pleasant,8.966666666666667,Cool,6,['Nature'],Nature
DEST_0170,Golden Pagoda,India,Asia,Religious,No,Spring,123.49,4.3,2.18,Mumbai,asia,19.054999,72.8692035,"A bustling metropolis where vibrant street life, aromatic food stalls, and historic landmarks blend with a dynamic energy that never sleeps.",Mid-range,5,3,2,3,5,4,5,3,1,29.933333333333334,Warm,28.53333333333333,Warm,28.900000000000002,Warm,26.5,Warm,6,"['History', 'Cultural', 'Architecture']","History, Cultural, Architecture"
DEST_0171,Hidden Park,Argentina,South America,Religious,Yes,Winter,78.3,4.4,3.96,Buenos Aires,south_america,-34.6083696,-58.4440583,"Lively streets filled with tango rhythms, vibrant markets, and historic architecture create an irresistible blend of culture and energy.",Mid-range,5,3,2,2,5,5,5,3,2,18.766666666666666,Pleasant,12.533333333333333,Cool,18.3,Pleasant,24.666666666666668,Pleasant,10,"['History', 'Cultural', 'Architecture']","History, Cultural, Architecture"
DEST_0172,Lush Canyon,Argentina,South America,Religious,No,Autumn,248.24,4.5,0.87,Buenos Aires,south_america,-34.6083696,-58.4440583,"Lively streets filled with tango rhythms, vibrant markets, and historic architecture create an irresistible blend of culture and energy.",Mid-range,5,3,2,2,5,5,5,3,2,18.766666666666666,Pleasant,12.533333333333333,Cool,18.3,Pleasant,24.666666666666668,Pleasant,10,"['History', 'Cultural', 'Architecture']","History, Cultural, Architecture"
DEST_0173,Grand Park,Canada,North America,Adventure,Yes,Autumn,175.73,4.9,1.28,Calgary,north_america,51.0456064,-114.057541,"A dynamic blend of urban sophistication and stunning natural landscapes, where vibrant arts scenes meet the majestic Rockies under vast blue skies.",Mid-range,4,4,5,1,4,3,3,3,3,4.633333333333334,Cold,17.0,Pleasant,5.566666666666667,Cool,-6.133333333333333,Cold,5,['Adventure'],Adventure
DEST_0174,Crystal Beach,Japan,Asia,Nature,No,Spring,144.38,4.4,8.16,Takayama,asia,36.1396246,137.2510322,"Charming wooden houses, serene streets, and the gentle flow of the river create a peaceful atmosphere perfect for unwinding and exploration.",Mid-range,5,2,4,1,2,2,4,3,4,10.533333333333333,Cool,22.96666666666667,Pleasant,14.200000000000001,Cool,0.5333333333333333,Cold,4,['Nature'],Nature
DEST_0175,Golden Park,Kenya,Africa,Adventure,Yes,Spring,113.18,4.7,2.49,Nairobi,africa,-1.30261485,36.82884202,"Bustling streets filled with colorful markets, the aroma of street food, and a lively mix of cultures create a dynamic urban experience.",Mid-range,4,4,5,1,4,3,3,3,2,20.666666666666668,Pleasant,18.3,Pleasant,19.966666666666665,Pleasant,20.8,Pleasant,5,['Adventure'],Adventure
DEST_0176,Hidden Temple,Vietnam,Asia,Historical,No,Winter,136.25,3.8,6.37,Hoi An,asia,15.8795863,108.3319406,"Charming lantern-lit streets, bustling markets, and the scent of fresh herbs create an inviting atmosphere that feels both timeless and vibrant.",Budget,5,3,3,3,2,2,5,3,4,27.366666666666664,Warm,30.166666666666668,Hot,27.066666666666666,Warm,22.73333333333333,Pleasant,4,"['History', 'Cultural', 'Architecture']","History, Cultural, Architecture"
DEST_0177,Mystic Valley,Morocco,Africa,City,No,Spring,118.67,3.8,7.6,Marrakesh,africa,31.6258257,-7.9891608,"A sensory feast of vibrant colors, aromatic spices, bustling souks, and serene gardens, creating an enchanting and immersive experience for every visitor.",Budget,5,3,3,1,4,4,5,4,2,19.86666666666667,Pleasant,28.266666666666666,Warm,22.233333333333334,Pleasant,14.033333333333333,Cool,5,['Urban'],Urban
DEST_0178,Lush Beach,Morocco,Africa,Religious,No,Summer,178.83,4.6,5.36,Fès,africa,34.0346534,-5.0161926,"Winding alleys filled with vibrant souks, the aroma of spices, and the sound of artisans at work create an enchanting, timeless atmosphere.",Budget,5,2,2,1,3,2,4,3,3,16.5,Pleasant,26.399999999999995,Warm,19.599999999999998,Pleasant,11.366666666666667,Cool,6,"['History', 'Cultural', 'Architecture']","History, Cultural, Architecture"
DEST_0179,Crystal Falls,South Africa,Africa,Historical,Yes,Winter,101.39,4.5,4.75,Pretoria,africa,-25.7459277,28.1879101,"Wide tree-lined avenues and vibrant jacaranda blooms create a serene backdrop for exploring cultural landmarks and lively markets in a warm, welcoming atmosphere.",Mid-range,4,3,4,1,4,3,4,3,2,18.8,Pleasant,13.733333333333334,Cool,21.5,Pleasant,22.733333333333334,Pleasant,4,"['History', 'Cultural', 'Architecture']","History, Cultural, Architecture"
DEST_0180,Sacred Falls,Thailand,Asia,City,Yes,Winter,69.68,4.6,3.06,Bangkok,asia,13.7524938,100.4935089,Busy streets filled with vibrant markets and aromatic street food stalls create an exhilarating atmosphere that's both chaotic and captivating.,Budget,5,3,2,2,5,5,5,4,1,30.566666666666666,Hot,29.599999999999998,Warm,28.73333333333333,Warm,28.133333333333336,Warm,10,['Urban'],Urban
DEST_0181,Crystal Pagoda,Australia,Oceania,Nature,No,Spring,140.65,4.5,3.56,Hobart,oceania,-42.8825088,147.3281233,"Charming waterfront views and a laid-back vibe invite exploration through historic streets, bustling markets, and the surrounding natural beauty of rugged landscapes.",Mid-range,4,3,5,3,3,2,4,3,4,12.733333333333334,Cool,8.833333333333334,Cool,11.5,Cool,15.9,Pleasant,5,['Nature'],Nature
DEST_0182,Lush Valley,Argentina,South America,Religious,No,Spring,117.67,4.2,1.64,Buenos Aires,south_america,-34.6083696,-58.4440583,"Lively streets filled with tango rhythms, vibrant markets, and historic architecture create an irresistible blend of culture and energy.",Mid-range,5,3,2,2,5,5,5,3,2,18.766666666666666,Pleasant,12.533333333333333,Cool,18.3,Pleasant,24.666666666666668,Pleasant,10,"['History', 'Cultural', 'Architecture']","History, Cultural, Architecture"
DEST_0183,Sacred Falls,Germany,Europe,City,No,Autumn,160.91,4.8,6.95,Berlin,europe,52.510885,13.3989367,"Eclectic streets filled with history, art, and a dynamic cultural scene create an atmosphere that's both invigorating and deeply engaging.",Mid-range,5,3,2,1,5,5,4,3,2,10.200000000000001,Cool,19.866666666666664,Pleasant,10.933333333333335,Cool,3.1999999999999997,Cold,5,['Urban'],Urban
DEST_0184,Ancient Pagoda,Spain,Europe,Adventure,Yes,Summer,149.6,4.9,1.33,Asturias,europe,43.3133868,-5.94192,"Lush green landscapes meet rugged coastlines, offering a sense of tranquility and adventure with every breathtaking vista and charming village.",Mid-range,4,4,5,4,2,3,4,3,4,12.333333333333334,Cool,18.499999999999996,Pleasant,14.666666666666666,Cool,9.1,Cool,6,['Adventure'],Adventure
DEST_0185,Hidden Valley,Japan,Asia,Religious,No,Spring,268.72,4.8,7.58,Kyoto,asia,35.0115754,135.7681441,"Serene temples and vibrant gardens blend with the gentle rustle of bamboo forests, creating a tranquil yet deeply enriching experience.",Luxury,5,2,4,1,3,2,5,3,4,15.266666666666666,Pleasant,26.900000000000002,Warm,19.166666666666668,Pleasant,6.333333333333333,Cool,6,"['History', 'Cultural', 'Architecture']","History, Cultural, Architecture"
DEST_0186,Sacred Falls,Kenya,Africa,City,Yes,Autumn,98.14,4.4,3.2,Nairobi,africa,-1.30261485,36.82884202,"Bustling streets filled with colorful markets, the aroma of street food, and a lively mix of cultures create a dynamic urban experience.",Mid-range,4,4,5,1,4,3,3,3,2,20.666666666666668,Pleasant,18.3,Pleasant,19.966666666666665,Pleasant,20.8,Pleasant,5,['Urban'],Urban
DEST_0187,Lush Canyon,Egypt,Africa,City,No,Summer,219.79,4.1,5.92,Cairo,africa,30.0443879,31.2357257,"Bustling streets filled with vibrant markets, the aroma of spices, and the awe-inspiring sight of ancient pyramids create an unforgettable experience.",Budget,5,3,3,2,4,3,4,3,2,22.733333333333334,Pleasant,30.0,Warm,25.03333333333333,Warm,16.066666666666666,Pleasant,6,['Urban'],Urban
DEST_0188,Golden Canyon,Morocco,Africa,Adventure,Yes,Summer,80.07,4.7,1.47,Fès,africa,34.0346534,-5.0161926,"Winding alleys filled with vibrant souks, the aroma of spices, and the sound of artisans at work create an enchanting, timeless atmosphere.",Budget,5,2,2,1,3,2,4,3,3,16.5,Pleasant,26.399999999999995,Warm,19.599999999999998,Pleasant,11.366666666666667,Cool,6,['Adventure'],Adventure
DEST_0189,Sacred Ruins,Vietnam,Asia,Beach,Yes,Summer,127.09,4.3,2.03,Hoi An,asia,15.8795863,108.3319406,"Charming lantern-lit streets, bustling markets, and the scent of fresh herbs create an inviting atmosphere that feels both timeless and vibrant.",Budget,5,3,3,3,2,2,5,3,4,27.366666666666664,Warm,30.166666666666668,Hot,27.066666666666666,Warm,22.73333333333333,Pleasant,4,['Beach'],Beach
DEST_0190,Sacred Plaza,China,Asia,Adventure,No,Spring,120.38,4.2,2.15,Lhasa,asia,29.6542054,91.1173015,High-altitude streets filled with the scent of incense and the sound of prayer wheels create a serene yet vibrant atmosphere.,Luxury,5,4,4,1,2,1,3,4,5,10.133333333333333,Cool,17.3,Pleasant,10.799999999999999,Cool,1.7,Cold,10,['Adventure'],Adventure
DEST_0191,Ancient Pagoda,South Africa,Africa,Religious,No,Winter,30.0,4.7,9.83,Pretoria,africa,-25.7459277,28.1879101,"Wide tree-lined avenues and vibrant jacaranda blooms create a serene backdrop for exploring cultural landmarks and lively markets in a warm, welcoming atmosphere.",Mid-range,4,3,4,1,4,3,4,3,2,18.8,Pleasant,13.733333333333334,Cool,21.5,Pleasant,22.733333333333334,Pleasant,4,"['History', 'Cultural', 'Architecture']","History, Cultural, Architecture"
DEST_0192,Hidden Temple,Egypt,Africa,Adventure,Yes,Spring,138.05,4.2,9.71,Sharm El Sheikh,africa,27.8644422,34.295447,Crystal-clear waters and vibrant coral reefs invite you to explore a world of underwater wonders while sun-drenched beaches promise pure relaxation.,Mid-range,3,4,4,5,3,4,3,4,3,24.133333333333336,Pleasant,32.766666666666666,Hot,26.066666666666666,Warm,15.766666666666666,Pleasant,5,['Adventure'],Adventure
DEST_0193,Ancient Falls,India,Asia,Adventure,No,Winter,161.87,4.6,2.95,Goa,asia,15.3004543,74.0855134,"Golden beaches stretch endlessly alongside vibrant markets and aromatic spice-scented air, offering a perfect blend of relaxation and lively culture.",Mid-range,4,4,3,5,3,5,4,3,3,29.166666666666668,Warm,26.900000000000002,Warm,27.566666666666666,Warm,26.7,Warm,5,['Adventure'],Adventure
DEST_0194,Crystal Temple,New Zealand,Oceania,Religious,Yes,Spring,175.05,4.2,9.33,Rotorua,oceania,-38.1381493,176.252922,"Steam rises from bubbling mud pools and the air is filled with the scent of sulfur, creating a unique geothermal wonderland.",Mid-range,4,4,5,2,3,3,3,5,3,13.066666666666668,Cool,7.866666666666667,Cool,11.233333333333334,Cool,16.566666666666666,Pleasant,4,"['History', 'Cultural', 'Architecture']","History, Cultural, Architecture"
DEST_0195,Golden Beach,Greece,Europe,Adventure,No,Summer,252.17,5.0,3.16,Crete,europe,35.3084952,24.46334232,"Sun-drenched beaches, ancient ruins, and vibrant local markets create a tapestry of experiences that feel both timeless and refreshingly alive.",Mid-range,4,4,5,5,3,3,5,4,4,16.833333333333332,Pleasant,26.366666666666664,Warm,20.233333333333334,Pleasant,11.966666666666667,Cool,8,['Adventure'],Adventure
DEST_0196,Serene Valley,Peru,South America,City,No,Winter,116.87,4.7,3.57,Lima,south_america,-12.0621065,-77.0365256,"A lively blend of colonial charm and vibrant modernity, with bustling markets, ocean views, and the tantalizing aroma of street food.",Mid-range,5,3,3,2,4,4,5,3,2,21.46666666666667,Pleasant,17.433333333333334,Pleasant,17.933333333333334,Pleasant,22.633333333333336,Pleasant,6,['Urban'],Urban
DEST_0197,Serene Falls,New Zealand,Oceania,City,No,Winter,163.99,3.7,2.8,Wellington,oceania,-41.2887953,174.7772114,"Charming harborside views, vibrant arts scene, and a cozy mix of urban buzz and nature create a welcoming, eclectic atmosphere.",Mid-range,4,3,4,3,4,4,4,3,2,15.033333333333333,Pleasant,10.966666666666669,Cool,13.266666666666666,Cool,17.633333333333333,Pleasant,6,['Urban'],Urban
DEST_0198,Mystic Ruins,Germany,Europe,Nature,Yes,Summer,162.99,4.2,3.24,Heidelberg,europe,49.4093582,8.694724,"Cobblestone streets lined with charming old buildings and the gentle flow of the Neckar River create an inviting, romantic atmosphere.",Mid-range,5,2,4,1,3,3,4,3,4,10.366666666666665,Cool,20.7,Pleasant,12.133333333333333,Cool,4.066666666666666,Cold,4,['Nature'],Nature
DEST_0199,Golden Ruins,New Zealand,Oceania,Historical,Yes,Winter,93.04,4.6,5.07,Rotorua,oceania,-38.1381493,176.252922,"Steam rises from bubbling mud pools and the air is filled with the scent of sulfur, creating a unique geothermal wonderland.",Mid-range,4,4,5,2,3,3,3,5,3,13.066666666666668,Cool,7.866666666666667,Cool,11.233333333333334,Cool,16.566666666666666,Pleasant,4,"['History', 'Cultural', 'Architecture']","History, Cultural, Architecture"
DEST_0200,Golden Ruins,France,Europe,Historical,No,Winter,117.41,4.5,3.7,Strasbourg,europe,48.584614,7.7507127,"Charming cobblestone streets lined with half-timbered houses, the aroma of freshly baked pastries, and the gentle flow of the canals create a fairy-tale ambiance.",Mid-range,5,2,3,1,4,3,4,3,3,11.5,Cool,20.900000000000002,Pleasant,11.833333333333334,Cool,4.166666666666667,Cold,5,"['History', 'Cultural', 'Architecture']","History, Cultural, Architecture"
DEST_0201,Sacred Valley,Brazil,South America,Beach,No,Winter,119.9,4.7,6.97,Salvador da Bahia,south_america,-13.2432762,-43.3742847,"Lively streets filled with music and dance, vibrant markets, and stunning coastal views create an energetic yet laid-back atmosphere.",Mid-range,5,3,4,4,3,4,5,3,2,27.2,Warm,25.600000000000005,Warm,28.866666666666664,Warm,26.96666666666667,Warm,5,['Beach'],Beach
DEST_0202,Sacred Park,Spain,Europe,Adventure,No,Autumn,176.49,4.9,4.98,Asturias,europe,43.3133868,-5.94192,"Lush green landscapes meet rugged coastlines, offering a sense of tranquility and adventure with every breathtaking vista and charming village.",Mid-range,4,4,5,4,2,3,4,3,4,12.333333333333334,Cool,18.499999999999996,Pleasant,14.666666666666666,Cool,9.1,Cool,6,['Adventure'],Adventure
DEST_0203,Golden Forest,Greece,Europe,Adventure,No,Winter,61.49,4.2,9.33,Crete,europe,35.3084952,24.46334232,"Sun-drenched beaches, ancient ruins, and vibrant local markets create a tapestry of experiences that feel both timeless and refreshingly alive.",Mid-range,4,4,5,5,3,3,5,4,4,16.833333333333332,Pleasant,26.366666666666664,Warm,20.233333333333334,Pleasant,11.966666666666667,Cool,8,['Adventure'],Adventure
DEST_0204,Lush Plaza,Argentina,South America,Adventure,Yes,Summer,168.56,4.3,9.41,Salta,south_america,-25.1076701,-64.3494964,"Stunning mountain landscapes, vibrant local markets, and the warmth of traditional folklore create an inviting and colorful atmosphere.",Mid-range,4,4,5,1,3,3,4,3,4,16.400000000000002,Pleasant,11.133333333333333,Cool,18.233333333333334,Pleasant,21.066666666666666,Pleasant,5,['Adventure'],Adventure
DEST_0205,Lush Valley,Thailand,Asia,Religious,No,Summer,174.4,5.0,8.5,Bangkok,asia,13.7524938,100.4935089,Busy streets filled with vibrant markets and aromatic street food stalls create an exhilarating atmosphere that's both chaotic and captivating.,Budget,5,3,2,2,5,5,5,4,1,30.566666666666666,Hot,29.599999999999998,Warm,28.73333333333333,Warm,28.133333333333336,Warm,10,"['History', 'Cultural', 'Architecture']","History, Cultural, Architecture"
DEST_0206,Crystal Park,Spain,Europe,Historical,Yes,Winter,166.88,4.4,2.42,Barcelona,europe,41.3828939,2.1774322,"Vibrant streets filled with Gaudí's whimsical architecture, lively tapas bars, and the warm Mediterranean breeze create an inviting and dynamic atmosphere.",Mid-range,5,3,3,4,5,5,5,3,2,15.066666666666668,Pleasant,24.8,Pleasant,17.8,Pleasant,9.766666666666667,Cool,6,"['History', 'Cultural', 'Architecture']","History, Cultural, Architecture"
DEST_0207,Sacred Canyon,Morocco,Africa,Nature,No,Spring,134.08,4.4,8.24,Chefchaouen,africa,35.1700832,-5.276658297,"Wander through winding blue-washed alleys, breathe in the fresh mountain air, and feel a serene calm envelop you in this charming town.",Budget,4,3,4,1,2,2,4,3,4,17.3,Pleasant,24.900000000000002,Pleasant,20.433333333333334,Pleasant,14.1,Cool,4,['Nature'],Nature
DEST_0208,Ancient Forest,India,Asia,Nature,Yes,Autumn,164.49,5.0,3.91,Ladakh,asia,34.0242098,77.2036739,"Rugged landscapes with towering mountains and serene monasteries create a tranquil yet awe-inspiring atmosphere, perfect for those seeking adventure and peace.",Budget,4,5,5,1,1,1,3,3,5,6.833333333333333,Cool,17.400000000000002,Pleasant,7.5,Cool,-4.5,Cold,10,['Nature'],Nature
DEST_0209,Grand Falls,Canada,North America,Adventure,No,Autumn,136.49,4.8,8.26,Calgary,north_america,51.0456064,-114.057541,"A dynamic blend of urban sophistication and stunning natural landscapes, where vibrant arts scenes meet the majestic Rockies under vast blue skies.",Mid-range,4,4,5,1,4,3,3,3,3,4.633333333333334,Cold,17.0,Pleasant,5.566666666666667,Cool,-6.133333333333333,Cold,5,['Adventure'],Adventure
DEST_0210,Hidden Plaza,India,Asia,Adventure,No,Autumn,48.09,4.2,4.9,Ladakh,asia,34.0242098,77.2036739,"Rugged landscapes with towering mountains and serene monasteries create a tranquil yet awe-inspiring atmosphere, perfect for those seeking adventure and peace.",Budget,4,5,5,1,1,1,3,3,5,6.833333333333333,Cool,17.400000000000002,Pleasant,7.5,Cool,-4.5,Cold,10,['Adventure'],Adventure
DEST_0211,Mystic Pagoda,Peru,South America,Religious,No,Spring,202.58,4.2,5.28,Machu Picchu,south_america,-13.164422,-72.5450851,"Misty mountain peaks and ancient stone terraces create a mystical atmosphere, inviting you to explore and connect with history and nature.",Luxury,5,5,5,1,1,1,3,2,4,12.700000000000001,Cool,11.533333333333333,Cool,14.033333333333333,Cool,13.266666666666666,Cool,10,"['History', 'Cultural', 'Architecture']","History, Cultural, Architecture"
DEST_0212,Ancient Falls,Spain,Europe,Beach,Yes,Summer,166.35,4.4,4.15,Barcelona,europe,41.3828939,2.1774322,"Vibrant streets filled with Gaudí's whimsical architecture, lively tapas bars, and the warm Mediterranean breeze create an inviting and dynamic atmosphere.",Mid-range,5,3,3,4,5,5,5,3,2,15.066666666666668,Pleasant,24.8,Pleasant,17.8,Pleasant,9.766666666666667,Cool,6,['Beach'],Beach
DEST_0213,Sacred Forest,Germany,Europe,Nature,No,Summer,194.62,4.5,6.43,Heidelberg,europe,49.4093582,8.694724,"Cobblestone streets lined with charming old buildings and the gentle flow of the Neckar River create an inviting, romantic atmosphere.",Mid-range,5,2,4,1,3,3,4,3,4,10.366666666666665,Cool,20.7,Pleasant,12.133333333333333,Cool,4.066666666666666,Cold,4,['Nature'],Nature
DEST_0214,Grand Beach,Peru,South America,Religious,No,Summer,76.07,4.8,1.82,Cuzco,south_america,-13.51695415,-71.97927121,"Cobblestone streets, vibrant markets, and the scent of fresh Andean cuisine surround you in a city where ancient history meets lively modern culture.",Budget,5,4,5,1,3,3,4,3,3,12.700000000000001,Cool,11.533333333333333,Cool,14.033333333333333,Cool,13.266666666666666,Cool,6,"['History', 'Cultural', 'Architecture']","History, Cultural, Architecture"
DEST_0215,Sacred Temple,Argentina,South America,Nature,No,Spring,175.47,4.9,5.57,Salta,south_america,-25.1076701,-64.3494964,"Stunning mountain landscapes, vibrant local markets, and the warmth of traditional folklore create an inviting and colorful atmosphere.",Mid-range,4,4,5,1,3,3,4,3,4,16.400000000000002,Pleasant,11.133333333333333,Cool,18.233333333333334,Pleasant,21.066666666666666,Pleasant,5,['Nature'],Nature
DEST_0216,Ancient Falls,Germany,Europe,Religious,Yes,Autumn,159.09,4.6,1.94,Heidelberg,europe,49.4093582,8.694724,"Cobblestone streets lined with charming old buildings and the gentle flow of the Neckar River create an inviting, romantic atmosphere.",Mid-range,5,2,4,1,3,3,4,3,4,10.366666666666665,Cool,20.7,Pleasant,12.133333333333333,Cool,4.066666666666666,Cold,4,"['History', 'Cultural', 'Architecture']","History, Cultural, Architecture"
DEST_0217,Serene Plaza,New Zealand,Oceania,Historical,No,Summer,95.43,4.3,7.57,Rotorua,oceania,-38.1381493,176.252922,"Steam rises from bubbling mud pools and the air is filled with the scent of sulfur, creating a unique geothermal wonderland.",Mid-range,4,4,5,2,3,3,3,5,3,13.066666666666668,Cool,7.866666666666667,Cool,11.233333333333334,Cool,16.566666666666666,Pleasant,4,"['History', 'Cultural', 'Architecture']","History, Cultural, Architecture"
DEST_0218,Crystal Beach,New Zealand,Oceania,Nature,No,Summer,153.58,4.4,7.74,Rotorua,oceania,-38.1381493,176.252922,"Steam rises from bubbling mud pools and the air is filled with the scent of sulfur, creating a unique geothermal wonderland.",Mid-range,4,4,5,2,3,3,3,5,3,13.066666666666668,Cool,7.866666666666667,Cool,11.233333333333334,Cool,16.566666666666666,Pleasant,4,['Nature'],Nature
DEST_0219,Hidden Beach,United States,North America,Historical,No,Spring,132.62,4.7,8.3,Washington,north_america,38.8950368,-77.0365427,"Majestic landscapes blend with vibrant city life, offering a mix of natural beauty, cultural richness, and a welcoming atmosphere.",Mid-range,5,2,3,1,5,4,4,3,2,14.633333333333335,Cool,26.23333333333333,Warm,16.73333333333333,Pleasant,4.8999999999999995,Cold,5,"['History', 'Cultural', 'Architecture']","History, Cultural, Architecture"
DEST_0220,Golden Valley,United States,North America,City,Yes,Autumn,136.51,4.2,8.07,Washington,north_america,38.8950368,-77.0365427,"Majestic landscapes blend with vibrant city life, offering a mix of natural beauty, cultural richness, and a welcoming atmosphere.",Mid-range,5,2,3,1,5,4,4,3,2,14.633333333333335,Cool,26.23333333333333,Warm,16.73333333333333,Pleasant,4.8999999999999995,Cold,5,['Urban'],Urban
DEST_0221,Hidden Ruins,Australia,Oceania,City,No,Autumn,128.63,4.3,7.36,Melbourne,oceania,-37.8142454,144.9631732,"A vibrant mix of street art, diverse cuisine, and lively laneways create an atmosphere that's both exciting and warmly inviting.",Mid-range,5,3,3,3,5,4,5,4,2,15.233333333333334,Pleasant,10.033333333333333,Cool,14.533333333333333,Cool,19.666666666666668,Pleasant,5,['Urban'],Urban
DEST_0222,Ancient Beach,Japan,Asia,Historical,No,Spring,193.48,4.9,7.09,Takayama,asia,36.1396246,137.2510322,"Charming wooden houses, serene streets, and the gentle flow of the river create a peaceful atmosphere perfect for unwinding and exploration.",Mid-range,5,2,4,1,2,2,4,3,4,10.533333333333333,Cool,22.96666666666667,Pleasant,14.200000000000001,Cool,0.5333333333333333,Cold,4,"['History', 'Cultural', 'Architecture']","History, Cultural, Architecture"
DEST_0223,Crystal Pagoda,Germany,Europe,City,No,Summer,68.39,4.6,3.78,Berlin,europe,52.510885,13.3989367,"Eclectic streets filled with history, art, and a dynamic cultural scene create an atmosphere that's both invigorating and deeply engaging.",Mid-range,5,3,2,1,5,5,4,3,2,10.200000000000001,Cool,19.866666666666664,Pleasant,10.933333333333335,Cool,3.1999999999999997,Cold,5,['Urban'],Urban
DEST_0224,Grand Canyon,Kenya,Africa,Adventure,No,Autumn,61.06,4.9,4.89,Nairobi,africa,-1.30261485,36.82884202,"Bustling streets filled with colorful markets, the aroma of street food, and a lively mix of cultures create a dynamic urban experience.",Mid-range,4,4,5,1,4,3,3,3,2,20.666666666666668,Pleasant,18.3,Pleasant,19.966666666666665,Pleasant,20.8,Pleasant,5,['Adventure'],Adventure
DEST_0225,Ancient Canyon,Canada,North America,Nature,No,Summer,159.03,5.0,6.31,Québec City,north_america,46.8137431,-71.2084061,"Cobblestone streets and historic architecture create a charming, old-world atmosphere, while the aroma of fresh pastries fills the crisp air.",Mid-range,5,3,4,2,3,3,4,3,3,4.333333333333333,Cold,19.299999999999997,Pleasant,8.533333333333333,Cool,-7.933333333333334,Cold,5,['Nature'],Nature
DEST_0226,Crystal Beach,Kenya,Africa,Religious,No,Autumn,155.47,4.7,7.12,Nairobi,africa,-1.30261485,36.82884202,"Bustling streets filled with colorful markets, the aroma of street food, and a lively mix of cultures create a dynamic urban experience.",Mid-range,4,4,5,1,4,3,3,3,2,20.666666666666668,Pleasant,18.3,Pleasant,19.966666666666665,Pleasant,20.8,Pleasant,5,"['History', 'Cultural', 'Architecture']","History, Cultural, Architecture"
DEST_0227,Crystal Temple,Mexico,North America,Adventure,Yes,Summer,160.84,4.6,1.95,Puerto Vallarta,north_america,20.6407176,-105.220306,"Golden beaches meet the lush Sierra Madre mountains, creating a vibrant yet laid-back atmosphere filled with colorful markets and lively nightlife.",Mid-range,3,4,4,5,3,4,4,4,3,23.066666666666666,Pleasant,25.3,Warm,24.3,Pleasant,21.2,Pleasant,5,['Adventure'],Adventure
DEST_0228,Golden Pagoda,Germany,Europe,Historical,No,Spring,244.1,4.9,4.53,Heidelberg,europe,49.4093582,8.694724,"Cobblestone streets lined with charming old buildings and the gentle flow of the Neckar River create an inviting, romantic atmosphere.",Mid-range,5,2,4,1,3,3,4,3,4,10.366666666666665,Cool,20.7,Pleasant,12.133333333333333,Cool,4.066666666666666,Cold,4,"['History', 'Cultural', 'Architecture']","History, Cultural, Architecture"
DEST_0229,Serene Forest,Thailand,Asia,City,No,Winter,159.19,4.5,9.29,Bangkok,asia,13.7524938,100.4935089,Busy streets filled with vibrant markets and aromatic street food stalls create an exhilarating atmosphere that's both chaotic and captivating.,Budget,5,3,2,2,5,5,5,4,1,30.566666666666666,Hot,29.599999999999998,Warm,28.73333333333333,Warm,28.133333333333336,Warm,10,['Urban'],Urban
DEST_0230,Golden Plaza,New Zealand,Oceania,Religious,Yes,Spring,100.52,4.5,9.86,Rotorua,oceania,-38.1381493,176.252922,"Steam rises from bubbling mud pools and the air is filled with the scent of sulfur, creating a unique geothermal wonderland.",Mid-range,4,4,5,2,3,3,3,5,3,13.066666666666668,Cool,7.866666666666667,Cool,11.233333333333334,Cool,16.566666666666666,Pleasant,4,"['History', 'Cultural', 'Architecture']","History, Cultural, Architecture"
DEST_0231,Grand Park,France,Europe,Adventure,No,Summer,276.93,4.7,4.29,Annecy,europe,45.8992348,6.1288847,"Charming canals and cobblestone streets weave through a picturesque town, surrounded by stunning alpine views and the serene waters of a crystal-clear lake.",Mid-range,4,4,5,3,3,3,4,3,4,11.1,Cool,21.0,Pleasant,11.966666666666667,Cool,3.6333333333333333,Cold,4,['Adventure'],Adventure
DEST_0232,Grand Beach,China,Asia,Religious,Yes,Autumn,142.1,4.4,8.13,Shanghai,asia,31.2312707,121.4700152,"Vibrant streets pulse with energy, blending futuristic skyscrapers with ancient temples, while enticing aromas from street food stalls fill the air.",Mid-range,5,3,2,1,5,5,5,3,2,17.266666666666666,Pleasant,28.400000000000002,Warm,20.333333333333332,Pleasant,7.433333333333333,Cool,6,"['History', 'Cultural', 'Architecture']","History, Cultural, Architecture"
DEST_0233,Hidden Valley,Peru,South America,City,No,Autumn,192.61,3.8,9.24,Lima,south_america,-12.0621065,-77.0365256,"A lively blend of colonial charm and vibrant modernity, with bustling markets, ocean views, and the tantalizing aroma of street food.",Mid-range,5,3,3,2,4,4,5,3,2,21.46666666666667,Pleasant,17.433333333333334,Pleasant,17.933333333333334,Pleasant,22.633333333333336,Pleasant,6,['Urban'],Urban
DEST_0234,Grand Forest,Thailand,Asia,Beach,No,Winter,85.5,4.1,7.51,Koh Lanta,asia,13.8212743,100.6306935,"Golden beaches, gentle waves, and lush greenery create a serene escape where you can unwind and soak in the tranquil island vibe.",Budget,3,4,4,5,2,3,4,4,4,30.599999999999998,Hot,29.666666666666668,Warm,28.633333333333336,Warm,27.733333333333334,Warm,5,['Beach'],Beach
DEST_0235,Serene Falls,Spain,Europe,Adventure,No,Spring,74.86,4.4,4.8,Asturias,europe,43.3133868,-5.94192,"Lush green landscapes meet rugged coastlines, offering a sense of tranquility and adventure with every breathtaking vista and charming village.",Mid-range,4,4,5,4,2,3,4,3,4,12.333333333333334,Cool,18.499999999999996,Pleasant,14.666666666666666,Cool,9.1,Cool,6,['Adventure'],Adventure
DEST_0236,Serene Falls,United States,North America,Beach,No,Summer,137.71,4.4,5.23,San Diego,north_america,32.7174202,-117.162772,"Sun-drenched beaches, vibrant neighborhoods, and an easygoing vibe invite you to savor ocean breezes and explore diverse, lively cultural spots.",Mid-range,4,4,4,5,4,4,4,4,3,16.96666666666667,Pleasant,21.266666666666666,Pleasant,20.066666666666666,Pleasant,14.566666666666668,Cool,5,['Beach'],Beach
DEST_0237,Mystic Canyon,Japan,Asia,Religious,Yes,Winter,190.22,4.5,3.94,Takayama,asia,36.1396246,137.2510322,"Charming wooden houses, serene streets, and the gentle flow of the river create a peaceful atmosphere perfect for unwinding and exploration.",Mid-range,5,2,4,1,2,2,4,3,4,10.533333333333333,Cool,22.96666666666667,Pleasant,14.200000000000001,Cool,0.5333333333333333,Cold,4,"['History', 'Cultural', 'Architecture']","History, Cultural, Architecture"
